{"objectIdFieldName":"FID","globalIdFieldName":"","geometryType":"esriGeometryPoint","spatialReference":{"wkid":102100,"latestWkid":3857},"fields":[{"name":"FID","type":"esriFieldTypeInteger","alias":"FID","sqlType":"sqlTypeInteger","domain":null,"defaultValue":null},{"name":"OBJECTID","type":"esriFieldTypeInteger","alias":"OBJECTID","sqlType":"sqlTypeInteger","domain":null,"defaultValue":null},{"name":"HQNAME","type":"esriFieldTypeString","alias":"HQNAME","sqlType":"sqlTypeNVarchar","length":50,"domain":null,"defaultValue":null},{"name":"SUBURB","type":"esriFieldTypeString","alias":"SUBURB","sqlType":"sqlTypeNVarchar","length":30,"domain":null,"defaultValue":null},{"name":"STATE","type":"esriFieldTypeString","alias":"STATE","sqlType":"sqlTypeNVarchar","length":3,"domain":null,"defaultValue":null},{"name":"POSTCODE","type":"esriFieldTypeString","alias":"POSTCODE","sqlType":"sqlTypeNVarchar","length":4,"domain":null,"defaultValue":null},{"name":"SES_LEVEL","type":"esriFieldTypeString","alias":"SES_LEVEL","sqlType":"sqlTypeNVarchar","length":10,"domain":null,"defaultValue":null},{"name":"RCR","type":"esriFieldTypeString","alias":"RCR","sqlType":"sqlTypeNVarchar","length":2,"domain":null,"defaultValue":null},{"name":"QA","type":"esriFieldTypeString","alias":"QA","sqlType":"sqlTypeNVarchar","length":2,"domain":null,"defaultValue":null},{"name":"REGCODE","type":"esriFieldTypeString","alias":"REGCODE","sqlType":"sqlTypeNVarchar","length":3,"domain":null,"defaultValue":null},{"name":"UNIT_CODE","type":"esriFieldTypeString","alias":"UNIT_CODE","sqlType":"sqlTypeNVarchar","length":4,"domain":null,"defaultValue":null},{"name":"POINT_X","type":"esriFieldTypeDouble","alias":"POINT_X","sqlType":"sqlTypeFloat","domain":null,"defaultValue":null},{"name":"POINT_Y","type":"esriFieldTypeDouble","alias":"POINT_Y","sqlType":"sqlTypeFloat","domain":null,"defaultValue":null}],"features":[{"attributes":{"FID":1,"OBJECTID":127,"HQNAME":"Narrandera","SUBURB":"Narrandera","STATE":"NSW","POSTCODE":"2700","SES_LEVEL":"Unit","RCR":"N","QA":"Y","REGCODE":"MER","UNIT_CODE":"NRN","POINT_X":146.55187,"POINT_Y":-34.74659},"geometry":{"x":16314079.543206068,"y":-4129496.8401702978}},{"attributes":{"FID":2,"OBJECTID":128,"HQNAME":"Nimmitabel","SUBURB":"Nimmitabel","STATE":"NSW","POSTCODE":"2631","SES_LEVEL":"Unit","RCR":"N","QA":"Y","REGCODE":"SHR","UNIT_CODE":"NIM","POINT_X":149.2814,"POINT_Y":-36.50903},"geometry":{"x":16617929.432924166,"y":-4370891.0734711261}},{"attributes":{"FID":3,"OBJECTID":129,"HQNAME":"North Sydney","SUBURB":"North Sydney","STATE":"NSW","POSTCODE":"2060","SES_LEVEL":"Unit","RCR":"N","QA":"Y","REGCODE":"SNR","UNIT_CODE":"NSY","POINT_X":151.21072,"POINT_Y":-33.84334},"geometry":{"x":16832700.352705404,"y":-4007785.7634804449}},{"attributes":{"FID":4,"OBJECTID":1,"HQNAME":"Aberdeen","SUBURB":"Aberdeen","STATE":"NSW","POSTCODE":"2336","SES_LEVEL":"Unit","RCR":"N","QA":"Y","REGCODE":"HUR","UNIT_CODE":"ABD","POINT_X":150.884320467,"POINT_Y":-32.17711602},"geometry":{"x":16796365.722821143,"y":-3786582.3778913985}},{"attributes":{"FID":5,"OBJECTID":130,"HQNAME":"Nundle","SUBURB":"Nundle","STATE":"NSW","POSTCODE":"2340","SES_LEVEL":"Unit","RCR":"Y","QA":"Y","REGCODE":"NMR","UNIT_CODE":"NUN","POINT_X":151.12821,"POINT_Y":-31.46259},"geometry":{"x":16823515.381403286,"y":-3692972.1106532128}},{"attributes":{"FID":6,"OBJECTID":2,"HQNAME":"Albury","SUBURB":"Thurgoona","STATE":"NSW","POSTCODE":"2640","SES_LEVEL":"Unit","RCR":"N","QA":"Y","REGCODE":"MYR","UNIT_CODE":"ABX","POINT_X":146.97448,"POINT_Y":-36.05848},"geometry":{"x":16361124.273269923,"y":-4308671.1160907159}},{"attributes":{"FID":7,"OBJECTID":131,"HQNAME":"Nymboida","SUBURB":"Coutts Crossing","STATE":"NSW","POSTCODE":"2461","SES_LEVEL":"Unit","RCR":"N","QA":"Y","REGCODE":"CNR","UNIT_CODE":"NYM","POINT_X":152.89042,"POINT_Y":-29.83591},"geometry":{"x":17019683.701156553,"y":-3482474.9943787316}},{"attributes":{"FID":8,"OBJECTID":3,"HQNAME":"Ashford","SUBURB":"Ashford","STATE":"NSW","POSTCODE":"2361","SES_LEVEL":"Unit","RCR":"Y","QA":"Y","REGCODE":"NWR","UNIT_CODE":"ASH","POINT_X":151.09307,"POINT_Y":-29.3247},"geometry":{"x":16819603.614395276,"y":-3417038.3387459922}},{"attributes":{"FID":9,"OBJECTID":132,"HQNAME":"Oberon","SUBURB":"Oberon","STATE":"NSW","POSTCODE":"2787","SES_LEVEL":"Unit","RCR":"Y","QA":"Y","REGCODE":"CWR","UNIT_CODE":"OAG","POINT_X":149.85586,"POINT_Y":-33.6995},"geometry":{"x":16681878.027438013,"y":-3988523.2369056111}},{"attributes":{"FID":10,"OBJECTID":4,"HQNAME":"Auburn","SUBURB":"Auburn","STATE":"NSW","POSTCODE":"2144","SES_LEVEL":"Unit","RCR":"N","QA":"Y","REGCODE":"SWR","UNIT_CODE":"AUB","POINT_X":151.01626,"POINT_Y":-33.86017},"geometry":{"x":16811053.164531682,"y":-4010041.691804233}},{"attributes":{"FID":11,"OBJECTID":133,"HQNAME":"Orange City","SUBURB":"Orange","STATE":"NSW","POSTCODE":"2800","SES_LEVEL":"Unit","RCR":"N","QA":"Y","REGCODE":"CWR","UNIT_CODE":"PAC","POINT_X":149.11089,"POINT_Y":-33.27294},"geometry":{"x":16598948.34638031,"y":-3931588.4743907414}},{"attributes":{"FID":12,"OBJECTID":5,"HQNAME":"Ballina","SUBURB":"Ballina","STATE":"NSW","POSTCODE":"2478","SES_LEVEL":"Unit","RCR":"Y","QA":"Y","REGCODE":"RTR","UNIT_CODE":"BAL","POINT_X":153.56411,"POINT_Y":-28.85747},"geometry":{"x":17094678.528850641,"y":-3357517.6374633671}},{"attributes":{"FID":13,"OBJECTID":134,"HQNAME":"Parkes","SUBURB":"Parkes","STATE":"NSW","POSTCODE":"2870","SES_LEVEL":"Unit","RCR":"Y","QA":"Y","REGCODE":"LAR","UNIT_CODE":"PKE","POINT_X":148.16365,"POINT_Y":-33.14686},"geometry":{"x":16493502.07194178,"y":-3914813.4353595586}},{"attributes":{"FID":14,"OBJECTID":6,"HQNAME":"Balranald","SUBURB":"Balranald","STATE":"NSW","POSTCODE":"2715","SES_LEVEL":"Unit","RCR":"N","QA":"Y","REGCODE":"MYR","UNIT_CODE":"BRD","POINT_X":143.56589,"POINT_Y":-34.64133},"geometry":{"x":15981681.770180983,"y":-4115245.5202563265}},{"attributes":{"FID":15,"OBJECTID":135,"HQNAME":"Parramatta","SUBURB":"North Parramatta","STATE":"NSW","POSTCODE":"2151","SES_LEVEL":"Unit","RCR":"N","QA":"Y","REGCODE":"SWR","UNIT_CODE":"PAR","POINT_X":151.00296,"POINT_Y":-33.80294},"geometry":{"x":16809572.615301542,"y":-4002372.2757498161}},{"attributes":{"FID":16,"OBJECTID":7,"HQNAME":"Bankstown","SUBURB":"Greenacre","STATE":"NSW","POSTCODE":"2190","SES_LEVEL":"Unit","RCR":"N","QA":"Y","REGCODE":"SSR","UNIT_CODE":"BKK","POINT_X":150.995352022,"POINT_Y":-33.903548754},"geometry":{"x":16808725.699069969,"y":-4015858.321502286}},{"attributes":{"FID":17,"OBJECTID":136,"HQNAME":"Peak Hill","SUBURB":"Peak Hill","STATE":"NSW","POSTCODE":"2869","SES_LEVEL":"Unit","RCR":"Y","QA":"Y","REGCODE":"LAR","UNIT_CODE":"PKH","POINT_X":148.18943,"POINT_Y":-32.72337},"geometry":{"x":16496371.88839161,"y":-3858643.2585770478}},{"attributes":{"FID":18,"OBJECTID":8,"HQNAME":"Tweed Heads","SUBURB":"Banora Point","STATE":"NSW","POSTCODE":"2486","SES_LEVEL":"Unit","RCR":"N","QA":"Y","REGCODE":"RTR","UNIT_CODE":"TWH","POINT_X":153.543,"POINT_Y":-28.2274},"geometry":{"x":17092328.574372165,"y":-3277674.0968041806}},{"attributes":{"FID":19,"OBJECTID":137,"HQNAME":"Pilliga","SUBURB":"Pilliga","STATE":"NSW","POSTCODE":"2388","SES_LEVEL":"Unit","RCR":"N","QA":"Y","REGCODE":"NMR","UNIT_CODE":"PIL","POINT_X":148.89331,"POINT_Y":-30.35288},"geometry":{"x":16574727.451431964,"y":-3548990.403041447}},{"attributes":{"FID":20,"OBJECTID":9,"HQNAME":"Barham","SUBURB":"Barham","STATE":"NSW","POSTCODE":"2732","SES_LEVEL":"Unit","RCR":"N","QA":"Y","REGCODE":"MYR","UNIT_CODE":"BAR","POINT_X":144.13226,"POINT_Y":-35.62646},"geometry":{"x":16044729.790218215,"y":-4249343.8283962393}},{"attributes":{"FID":21,"OBJECTID":138,"HQNAME":"Port Stephens","SUBURB":"Raymond Terrace","STATE":"NSW","POSTCODE":"2324","SES_LEVEL":"Unit","RCR":"Y","QA":"Y","REGCODE":"HUR","UNIT_CODE":"PTS","POINT_X":151.77074,"POINT_Y":-32.74533},"geometry":{"x":16895041.493870042,"y":-3861549.3625997817}},{"attributes":{"FID":22,"OBJECTID":10,"HQNAME":"Barraba","SUBURB":"Barraba","STATE":"NSW","POSTCODE":"2347","SES_LEVEL":"Unit","RCR":"N","QA":"Y","REGCODE":"NMR","UNIT_CODE":"BAB","POINT_X":150.611589687,"POINT_Y":-30.378818447},"geometry":{"x":16766005.471186733,"y":-3552336.9540103516}},{"attributes":{"FID":23,"OBJECTID":139,"HQNAME":"Portland","SUBURB":"Portland","STATE":"NSW","POSTCODE":"2847","SES_LEVEL":"Unit","RCR":"N","QA":"Y","REGCODE":"CWR","UNIT_CODE":"PRT","POINT_X":149.97388,"POINT_Y":-33.35975},"geometry":{"x":16695015.953720674,"y":-3943152.6921723182}},{"attributes":{"FID":24,"OBJECTID":11,"HQNAME":"Bathurst","SUBURB":"Bathurst","STATE":"NSW","POSTCODE":"2795","SES_LEVEL":"Unit","RCR":"Y","QA":"Y","REGCODE":"CWR","UNIT_CODE":"BTH","POINT_X":149.57165,"POINT_Y":-33.43957},"geometry":{"x":16650239.914954027,"y":-3953795.9347330928}},{"attributes":{"FID":25,"OBJECTID":140,"HQNAME":"Queanbeyan","SUBURB":"Queanbeyan","STATE":"NSW","POSTCODE":"2620","SES_LEVEL":"Unit","RCR":"Y","QA":"Y","REGCODE":"SHR","UNIT_CODE":"QBN","POINT_X":149.23494,"POINT_Y":-35.34523},"geometry":{"x":16612757.529319469,"y":-4210896.055369921}},{"attributes":{"FID":26,"OBJECTID":12,"HQNAME":"The Hills","SUBURB":"Baulkham Hills","STATE":"NSW","POSTCODE":"2153","SES_LEVEL":"Unit","RCR":"N","QA":"Y","REGCODE":"SWR","UNIT_CODE":"HLS","POINT_X":150.9835,"POINT_Y":-33.76803},"geometry":{"x":16807406.338009425,"y":-3997696.4907610496}},{"attributes":{"FID":27,"OBJECTID":141,"HQNAME":"Randwick","SUBURB":"Maroubra Junction","STATE":"NSW","POSTCODE":"2031","SES_LEVEL":"Unit","RCR":"N","QA":"Y","REGCODE":"SSR","UNIT_CODE":"RWK","POINT_X":151.24622,"POINT_Y":-33.93794},"geometry":{"x":16836652.194632474,"y":-4020471.9255189686}},{"attributes":{"FID":28,"OBJECTID":13,"HQNAME":"Bega","SUBURB":"Bega","STATE":"NSW","POSTCODE":"2550","SES_LEVEL":"Unit","RCR":"N","QA":"Y","REGCODE":"ISR","UNIT_CODE":"BEG","POINT_X":149.83628,"POINT_Y":-36.68648},"geometry":{"x":16679698.391968863,"y":-4395495.7763703074}},{"attributes":{"FID":29,"OBJECTID":142,"HQNAME":"Rockdale","SUBURB":"Bexley","STATE":"NSW","POSTCODE":"2207","SES_LEVEL":"Unit","RCR":"N","QA":"Y","REGCODE":"SSR","UNIT_CODE":"ROK","POINT_X":151.11643,"POINT_Y":-33.94764},"geometry":{"x":16822204.0379263,"y":-4021773.5225480055}},{"attributes":{"FID":30,"OBJECTID":14,"HQNAME":"Bellingen","SUBURB":"Bellingen","STATE":"NSW","POSTCODE":"2454","SES_LEVEL":"Unit","RCR":"N","QA":"Y","REGCODE":"CNR","UNIT_CODE":"BEL","POINT_X":152.89312,"POINT_Y":-30.45332},"geometry":{"x":17019984.263810355,"y":-3561954.0088113751}},{"attributes":{"FID":31,"OBJECTID":143,"HQNAME":"Ryde","SUBURB":"Marsfield","STATE":"NSW","POSTCODE":"2122","SES_LEVEL":"Unit","RCR":"N","QA":"Y","REGCODE":"SNR","UNIT_CODE":"RYD","POINT_X":151.13651,"POINT_Y":-33.78704},"geometry":{"x":16824439.333292685,"y":-4000242.4208876383}},{"attributes":{"FID":32,"OBJECTID":15,"HQNAME":"Tocumwal","SUBURB":"Tocumwal","STATE":"NSW","POSTCODE":"2714","SES_LEVEL":"Unit","RCR":"N","QA":"Y","REGCODE":"MYR","UNIT_CODE":"BER","POINT_X":145.56866,"POINT_Y":-35.81228},"geometry":{"x":16204629.106755173,"y":-4274822.0372815738}},{"attributes":{"FID":33,"OBJECTID":144,"HQNAME":"Scone","SUBURB":"Scone","STATE":"NSW","POSTCODE":"2337","SES_LEVEL":"Unit","RCR":"Y","QA":"Y","REGCODE":"HUR","UNIT_CODE":"SCN","POINT_X":150.86937,"POINT_Y":-32.05196},"geometry":{"x":16794701.444441743,"y":-3770133.1190615674}},{"attributes":{"FID":34,"OBJECTID":16,"HQNAME":"Bigga","SUBURB":"Bigga","STATE":"NSW","POSTCODE":"2625","SES_LEVEL":"Unit","RCR":"N","QA":"Y","REGCODE":"SHR","UNIT_CODE":"BIG","POINT_X":149.15076,"POINT_Y":-34.08503},"geometry":{"x":16603386.654519595,"y":-4040225.2001994718}},{"attributes":{"FID":35,"OBJECTID":145,"HQNAME":"Shellharbour City","SUBURB":"Albion Park","STATE":"NSW","POSTCODE":"2527","SES_LEVEL":"Unit","RCR":"N","QA":"Y","REGCODE":"ISR","UNIT_CODE":"SHE","POINT_X":150.77658,"POINT_Y":-34.57098},"geometry":{"x":16784372.109021481,"y":-4105730.80603698}},{"attributes":{"FID":36,"OBJECTID":17,"HQNAME":"Bingara","SUBURB":"Bingara","STATE":"NSW","POSTCODE":"2404","SES_LEVEL":"Unit","RCR":"Y","QA":"Y","REGCODE":"NWR","UNIT_CODE":"BIN","POINT_X":150.57002,"POINT_Y":-29.86813},"geometry":{"x":16761377.954773972,"y":-3486610.4222131325}},{"attributes":{"FID":37,"OBJECTID":146,"HQNAME":"Singleton","SUBURB":"Singleton","STATE":"NSW","POSTCODE":"2330","SES_LEVEL":"Unit","RCR":"N","QA":"Y","REGCODE":"HUR","UNIT_CODE":"SIN","POINT_X":151.175394856,"POINT_Y":-32.559020149},"geometry":{"x":16828767.975599237,"y":-3836916.4831234296}},{"attributes":{"FID":38,"OBJECTID":18,"HQNAME":"Blacktown","SUBURB":"Prospect","STATE":"NSW","POSTCODE":"2149","SES_LEVEL":"Unit","RCR":"N","QA":"Y","REGCODE":"SWR","UNIT_CODE":"BTN","POINT_X":150.9191,"POINT_Y":-33.79609},"geometry":{"x":16800237.362805471,"y":-4001454.64825772}},{"attributes":{"FID":39,"OBJECTID":147,"HQNAME":"Snowy River","SUBURB":"Jindabyne","STATE":"NSW","POSTCODE":"2527","SES_LEVEL":"Unit","RCR":"Y","QA":"Y","REGCODE":"SHR","UNIT_CODE":"SNO","POINT_X":148.60345,"POINT_Y":-36.43559},"geometry":{"x":16542460.38415736,"y":-4360724.6079889629}},{"attributes":{"FID":40,"OBJECTID":19,"HQNAME":"Blayney","SUBURB":"Blayney","STATE":"NSW","POSTCODE":"2799","SES_LEVEL":"Unit","RCR":"Y","QA":"Y","REGCODE":"CWR","UNIT_CODE":"BLY","POINT_X":149.24841,"POINT_Y":-33.53655},"geometry":{"x":16614257.002764042,"y":-3966740.4862396186}},{"attributes":{"FID":41,"OBJECTID":148,"HQNAME":"Ulladulla","SUBURB":"Milton","STATE":"NSW","POSTCODE":"2539","SES_LEVEL":"Unit","RCR":"N","QA":"Y","REGCODE":"ISR","UNIT_CODE":"ULA","POINT_X":150.46804,"POINT_Y":-35.36437},"geometry":{"x":16750025.593382442,"y":-4213508.4824555963}},{"attributes":{"FID":42,"OBJECTID":20,"HQNAME":"Blue Mountains","SUBURB":"Katoomba","STATE":"NSW","POSTCODE":"2776","SES_LEVEL":"Unit","RCR":"N","QA":"Y","REGCODE":"SWR","UNIT_CODE":"BLU","POINT_X":150.30065,"POINT_Y":-33.70897},"geometry":{"x":16731391.823736347,"y":-3989790.4312623106}},{"attributes":{"FID":43,"OBJECTID":149,"HQNAME":"Strathfield","SUBURB":"Strathfield","STATE":"NSW","POSTCODE":"2135","SES_LEVEL":"Unit","RCR":"N","QA":"Y","REGCODE":"SWR","UNIT_CODE":"STR","POINT_X":151.065431328,"POINT_Y":-33.874967519},"geometry":{"x":16816526.891725738,"y":-4012025.5494845486}},{"attributes":{"FID":44,"OBJECTID":21,"HQNAME":"Boggabilla","SUBURB":"Boggabilla","STATE":"NSW","POSTCODE":"2409","SES_LEVEL":"Unit","RCR":"Y","QA":"Y","REGCODE":"NWR","UNIT_CODE":"BOG","POINT_X":150.35977,"POINT_Y":-28.61167},"geometry":{"x":16737973.031780254,"y":-3326312.5632472946}},{"attributes":{"FID":45,"OBJECTID":150,"HQNAME":"Sutherland","SUBURB":"Caringbah","STATE":"NSW","POSTCODE":"2229","SES_LEVEL":"Unit","RCR":"N","QA":"Y","REGCODE":"SSR","UNIT_CODE":"SUD","POINT_X":151.00871,"POINT_Y":-34.08856},"geometry":{"x":16810212.702388123,"y":-4040699.6783984518}},{"attributes":{"FID":46,"OBJECTID":22,"HQNAME":"Boggabri","SUBURB":"Boggabri","STATE":"NSW","POSTCODE":"2382","SES_LEVEL":"Unit","RCR":"N","QA":"Y","REGCODE":"NMR","UNIT_CODE":"BRI","POINT_X":150.04089,"POINT_Y":-30.70484},"geometry":{"x":16702475.47266403,"y":-3594476.0336799952}},{"attributes":{"FID":47,"OBJECTID":151,"HQNAME":"City of Sydney","SUBURB":"Erskineville","STATE":"NSW","POSTCODE":"2043","SES_LEVEL":"Unit","RCR":"N","QA":"Y","REGCODE":"SSR","UNIT_CODE":"SYD","POINT_X":151.18795,"POINT_Y":-33.89888},"geometry":{"x":16830165.607903466,"y":-4015232.1491888}},{"attributes":{"FID":48,"OBJECTID":152,"HQNAME":"Tabulam","SUBURB":"Tabulam","STATE":"NSW","POSTCODE":"2470","SES_LEVEL":"Unit","RCR":"Y","QA":"Y","REGCODE":"RTR","UNIT_CODE":"TAB","POINT_X":152.5692,"POINT_Y":-28.88782},"geometry":{"x":16983925.654287107,"y":-3361375.7683607573}},{"attributes":{"FID":49,"OBJECTID":23,"HQNAME":"Bombala","SUBURB":"Bombala","STATE":"NSW","POSTCODE":"2632","SES_LEVEL":"Unit","RCR":"N","QA":"Y","REGCODE":"SHR","UNIT_CODE":"BOM","POINT_X":149.2487,"POINT_Y":-36.90243},"geometry":{"x":16614289.285598179,"y":-4425515.4993546773}},{"attributes":{"FID":50,"OBJECTID":153,"HQNAME":"Braidwood","SUBURB":"Braidwood","STATE":"NSW","POSTCODE":"2622","SES_LEVEL":"Unit","RCR":"N","QA":"Y","REGCODE":"SHR","UNIT_CODE":"BRW","POINT_X":149.8023,"POINT_Y":-35.45099},"geometry":{"x":16675915.755605202,"y":-4225339.03817886}},{"attributes":{"FID":51,"OBJECTID":24,"HQNAME":"Bourke","SUBURB":"Bourke","STATE":"NSW","POSTCODE":"2840","SES_LEVEL":"Unit","RCR":"N","QA":"Y","REGCODE":"FWR","UNIT_CODE":"BKE","POINT_X":145.95156,"POINT_Y":-30.04204},"geometry":{"x":16247253.339458132,"y":-3508954.83914577}},{"attributes":{"FID":52,"OBJECTID":154,"HQNAME":"Tambar Springs","SUBURB":"Tambar Springs","STATE":"NSW","POSTCODE":"2381","SES_LEVEL":"Unit","RCR":"Y","QA":"Y","REGCODE":"NMR","UNIT_CODE":"TSP","POINT_X":149.82848,"POINT_Y":-31.34735},"geometry":{"x":16678830.099661659,"y":-3677941.791068614}},{"attributes":{"FID":53,"OBJECTID":25,"HQNAME":"Brewarrina","SUBURB":"Brewarrina","STATE":"NSW","POSTCODE":"2839","SES_LEVEL":"Unit","RCR":"Y","QA":"Y","REGCODE":"FWR","UNIT_CODE":"BWR","POINT_X":146.85852,"POINT_Y":-29.96308},"geometry":{"x":16348215.664797507,"y":-3498805.0042458763}},{"attributes":{"FID":54,"OBJECTID":155,"HQNAME":"Taree City","SUBURB":"Taree","STATE":"NSW","POSTCODE":"2430","SES_LEVEL":"Unit","RCR":"N","QA":"Y","REGCODE":"MNR","UNIT_CODE":"TAR","POINT_X":152.4586,"POINT_Y":-31.8994},"geometry":{"x":16971613.7187493,"y":-3750112.546273313}},{"attributes":{"FID":55,"OBJECTID":26,"HQNAME":"Broadwater","SUBURB":"Broadwater","STATE":"NSW","POSTCODE":"2478","SES_LEVEL":"Unit","RCR":"N","QA":"Y","REGCODE":"RTR","UNIT_CODE":"BWT","POINT_X":153.42923,"POINT_Y":-29.01491},"geometry":{"x":17079663.755942233,"y":-3377543.8813878144}},{"attributes":{"FID":56,"OBJECTID":156,"HQNAME":"Temora","SUBURB":"Temora","STATE":"NSW","POSTCODE":"2666","SES_LEVEL":"Unit","RCR":"Y","QA":"Y","REGCODE":"MER","UNIT_CODE":"TEM","POINT_X":147.5239,"POINT_Y":-34.44654},"geometry":{"x":16422285.427795094,"y":-4088920.202310482}},{"attributes":{"FID":57,"OBJECTID":27,"HQNAME":"Broken Hill","SUBURB":"Broken Hill","STATE":"NSW","POSTCODE":"2880","SES_LEVEL":"Unit","RCR":"Y","QA":"Y","REGCODE":"FWR","UNIT_CODE":"BHQ","POINT_X":141.44962,"POINT_Y":-31.96046},"geometry":{"x":15746099.671324773,"y":-3758121.5059201792}},{"attributes":{"FID":58,"OBJECTID":28,"HQNAME":"Brushgrove","SUBURB":"Brushgrove","STATE":"NSW","POSTCODE":"2460","SES_LEVEL":"Unit","RCR":"N","QA":"Y","REGCODE":"CNR","UNIT_CODE":"BSH","POINT_X":153.07881,"POINT_Y":-29.56754},"geometry":{"x":17040655.180010781,"y":-3448081.3886230858}},{"attributes":{"FID":59,"OBJECTID":157,"HQNAME":"Tenterfield","SUBURB":"Tenterfield","STATE":"NSW","POSTCODE":"2372","SES_LEVEL":"Unit","RCR":"Y","QA":"Y","REGCODE":"NWR","UNIT_CODE":"TEN","POINT_X":152.00709,"POINT_Y":-29.03927},"geometry":{"x":16921351.8553363,"y":-3380645.1766543644}},{"attributes":{"FID":60,"OBJECTID":29,"HQNAME":"Bungendore","SUBURB":"Bungendore","STATE":"NSW","POSTCODE":"2620","SES_LEVEL":"Unit","RCR":"N","QA":"Y","REGCODE":"SHR","UNIT_CODE":"BNG","POINT_X":149.43978,"POINT_Y":-35.26141},"geometry":{"x":16635560.213803064,"y":-4199462.708427228}},{"attributes":{"FID":61,"OBJECTID":158,"HQNAME":"The Rock","SUBURB":"The Rock","STATE":"NSW","POSTCODE":"2655","SES_LEVEL":"Unit","RCR":"Y","QA":"Y","REGCODE":"MER","UNIT_CODE":"TRK","POINT_X":147.11958,"POINT_Y":-35.27073},"geometry":{"x":16377276.7313353,"y":-4200733.4046062576}},{"attributes":{"FID":62,"OBJECTID":30,"HQNAME":"Burraga","SUBURB":"Burraga","STATE":"NSW","POSTCODE":"2795","SES_LEVEL":"Unit","RCR":"N","QA":"Y","REGCODE":"CWR","UNIT_CODE":"BGA","POINT_X":149.52976,"POINT_Y":-33.94611},"geometry":{"x":16645576.74151222,"y":-4021568.2091722833}},{"attributes":{"FID":63,"OBJECTID":159,"HQNAME":"Tibooburra","SUBURB":"Tibooburra","STATE":"NSW","POSTCODE":"2880","SES_LEVEL":"Unit","RCR":"Y","QA":"Y","REGCODE":"FWR","UNIT_CODE":"TIB","POINT_X":142.01111,"POINT_Y":-29.43266},"geometry":{"x":15808604.452055641,"y":-3430830.0579799414}},{"attributes":{"FID":64,"OBJECTID":31,"HQNAME":"Burwood","SUBURB":"Croydon","STATE":"NSW","POSTCODE":"2132","SES_LEVEL":"Unit","RCR":"N","QA":"Y","REGCODE":"SWR","UNIT_CODE":"BUR","POINT_X":151.11271,"POINT_Y":-33.8737},"geometry":{"x":16821789.929416854,"y":-4011855.6036610226}},{"attributes":{"FID":65,"OBJECTID":160,"HQNAME":"Tingha","SUBURB":"Tingha","STATE":"NSW","POSTCODE":"2369","SES_LEVEL":"Unit","RCR":"N","QA":"Y","REGCODE":"NMR","UNIT_CODE":"TGA","POINT_X":151.21072,"POINT_Y":-29.95701},"geometry":{"x":16832700.352514222,"y":-3498025.0763720912}},{"attributes":{"FID":66,"OBJECTID":32,"HQNAME":"Camden","SUBURB":"Camden","STATE":"NSW","POSTCODE":"2570","SES_LEVEL":"Unit","RCR":"N","QA":"Y","REGCODE":"SSR","UNIT_CODE":"CAM","POINT_X":150.737130443,"POINT_Y":-34.044763201},"geometry":{"x":16779980.60439796,"y":-4034814.2153638192}},{"attributes":{"FID":67,"OBJECTID":161,"HQNAME":"Trundle","SUBURB":"Trundle","STATE":"NSW","POSTCODE":"2875","SES_LEVEL":"Unit","RCR":"Y","QA":"Y","REGCODE":"LAR","UNIT_CODE":"TDL","POINT_X":147.71157,"POINT_Y":-32.92236},"geometry":{"x":16443176.756545421,"y":-3885003.0805777111}},{"attributes":{"FID":68,"OBJECTID":33,"HQNAME":"Camden Haven","SUBURB":"Laurieton","STATE":"NSW","POSTCODE":"2443","SES_LEVEL":"Unit","RCR":"Y","QA":"Y","REGCODE":"MNR","UNIT_CODE":"CHV","POINT_X":152.79418,"POINT_Y":-31.656},"geometry":{"x":17008970.313450351,"y":-3718239.5047772089}},{"attributes":{"FID":69,"OBJECTID":162,"HQNAME":"Tumut","SUBURB":"Tumut","STATE":"NSW","POSTCODE":"2720","SES_LEVEL":"Unit","RCR":"Y","QA":"Y","REGCODE":"MER","UNIT_CODE":"TMT","POINT_X":148.21218,"POINT_Y":-35.29529},"geometry":{"x":16498904.406943539,"y":-4204082.6352108084}},{"attributes":{"FID":70,"OBJECTID":34,"HQNAME":"Campbelltown","SUBURB":"Minto","STATE":"NSW","POSTCODE":"2566","SES_LEVEL":"Unit","RCR":"N","QA":"Y","REGCODE":"SSR","UNIT_CODE":"CTN","POINT_X":150.84744,"POINT_Y":-34.03949},"geometry":{"x":16792260.208109621,"y":-4034105.8017947478}},{"attributes":{"FID":71,"OBJECTID":163,"HQNAME":"Sofala","SUBURB":"Sofala","STATE":"NSW","POSTCODE":"2795","SES_LEVEL":"Unit","RCR":"Y","QA":"Y","REGCODE":"CWR","UNIT_CODE":"SOF","POINT_X":149.69512,"POINT_Y":-33.08133},"geometry":{"x":16663984.532460429,"y":-3906104.1430701497}},{"attributes":{"FID":72,"OBJECTID":35,"HQNAME":"Canowindra","SUBURB":"Canowindra","STATE":"NSW","POSTCODE":"2804","SES_LEVEL":"Unit","RCR":"Y","QA":"Y","REGCODE":"CWR","UNIT_CODE":"CAW","POINT_X":148.6746,"POINT_Y":-33.55132},"geometry":{"x":16550380.765769033,"y":-3968713.2074697241}},{"attributes":{"FID":73,"OBJECTID":164,"HQNAME":"Ulmarra","SUBURB":"Ulmarra","STATE":"NSW","POSTCODE":"2462","SES_LEVEL":"Unit","RCR":"N","QA":"Y","REGCODE":"CNR","UNIT_CODE":"ULM","POINT_X":153.02925,"POINT_Y":-29.63103},"geometry":{"x":17035138.186051015,"y":-3456209.8143522758}},{"attributes":{"FID":74,"OBJECTID":36,"HQNAME":"Canterbury","SUBURB":"Beverly Hills","STATE":"NSW","POSTCODE":"2209","SES_LEVEL":"Unit","RCR":"N","QA":"Y","REGCODE":"SSR","UNIT_CODE":"CBY","POINT_X":151.08151,"POINT_Y":-33.93858},"geometry":{"x":16818316.761308253,"y":-4020557.7995089735}},{"attributes":{"FID":75,"OBJECTID":165,"HQNAME":"Uralla","SUBURB":"Uralla","STATE":"NSW","POSTCODE":"2358","SES_LEVEL":"Unit","RCR":"Y","QA":"Y","REGCODE":"NMR","UNIT_CODE":"URL","POINT_X":151.487962074,"POINT_Y":-30.638742785},"geometry":{"x":16863562.799044356,"y":-3585921.3553909762}},{"attributes":{"FID":76,"OBJECTID":37,"HQNAME":"Captains Flat","SUBURB":"Captains Flat","STATE":"NSW","POSTCODE":"2621","SES_LEVEL":"Unit","RCR":"N","QA":"Y","REGCODE":"SHR","UNIT_CODE":"CFL","POINT_X":149.43992,"POINT_Y":-35.59133},"geometry":{"x":16635575.798549611,"y":-4244533.7377222208}},{"attributes":{"FID":77,"OBJECTID":166,"HQNAME":"Urana","SUBURB":"Urana","STATE":"NSW","POSTCODE":"2645","SES_LEVEL":"Unit","RCR":"N","QA":"Y","REGCODE":"MYR","UNIT_CODE":"URN","POINT_X":146.27025,"POINT_Y":-35.32583},"geometry":{"x":16282729.748250134,"y":-4208248.7722212756}},{"attributes":{"FID":78,"OBJECTID":38,"HQNAME":"Casino","SUBURB":"Casino","STATE":"NSW","POSTCODE":"2470","SES_LEVEL":"Unit","RCR":"N","QA":"Y","REGCODE":"RTR","UNIT_CODE":"CAS","POINT_X":153.05333,"POINT_Y":-28.87574},"geometry":{"x":17037818.759354308,"y":-3359840.0082729}},{"attributes":{"FID":79,"OBJECTID":167,"HQNAME":"Urbenville","SUBURB":"Urbenville","STATE":"NSW","POSTCODE":"2475","SES_LEVEL":"Unit","RCR":"Y","QA":"Y","REGCODE":"RTR","UNIT_CODE":"URB","POINT_X":152.54689,"POINT_Y":-28.47416},"geometry":{"x":16981442.116429135,"y":-3308887.1162690669}},{"attributes":{"FID":80,"OBJECTID":39,"HQNAME":"Cessnock City","SUBURB":"Cessnock","STATE":"NSW","POSTCODE":"2325","SES_LEVEL":"Unit","RCR":"N","QA":"Y","REGCODE":"HUR","UNIT_CODE":"CES","POINT_X":151.35177,"POINT_Y":-32.83821},"geometry":{"x":16848401.966827419,"y":-3873848.6847372}},{"attributes":{"FID":81,"OBJECTID":168,"HQNAME":"Urunga","SUBURB":"Urunga","STATE":"NSW","POSTCODE":"2455","SES_LEVEL":"Unit","RCR":"Y","QA":"Y","REGCODE":"CNR","UNIT_CODE":"URG","POINT_X":153.01876,"POINT_Y":-30.49538},"geometry":{"x":17033970.444632877,"y":-3567386.5827008453}},{"attributes":{"FID":82,"OBJECTID":40,"HQNAME":"City of Newcastle","SUBURB":"Tighes Hill","STATE":"NSW","POSTCODE":"2297","SES_LEVEL":"Unit","RCR":"N","QA":"Y","REGCODE":"HUR","UNIT_CODE":"NTL","POINT_X":151.75922,"POINT_Y":-32.90775},"geometry":{"x":16893759.09334445,"y":-3883065.7107718238}},{"attributes":{"FID":83,"OBJECTID":169,"HQNAME":"Wagga Wagga","SUBURB":"Wagga Wagga","STATE":"NSW","POSTCODE":"2650","SES_LEVEL":"Unit","RCR":"N","QA":"Y","REGCODE":"MER","UNIT_CODE":"WGA","POINT_X":147.329777698,"POINT_Y":-35.129348059},"geometry":{"x":16400675.832028162,"y":-4181472.9512595534}},{"attributes":{"FID":84,"OBJECTID":41,"HQNAME":"Cobar","SUBURB":"Cobar","STATE":"NSW","POSTCODE":"2835","SES_LEVEL":"Unit","RCR":"Y","QA":"Y","REGCODE":"FWR","UNIT_CODE":"COB","POINT_X":145.838354132,"POINT_Y":-31.491036033},"geometry":{"x":16234651.319955368,"y":-3696685.06371177}},{"attributes":{"FID":85,"OBJECTID":170,"HQNAME":"Walcha","SUBURB":"Walcha","STATE":"NSW","POSTCODE":"2354","SES_LEVEL":"Unit","RCR":"Y","QA":"Y","REGCODE":"NMR","UNIT_CODE":"WAL","POINT_X":151.59252,"POINT_Y":-30.98329},"geometry":{"x":16875202.134139132,"y":-3630579.2223031414}},{"attributes":{"FID":86,"OBJECTID":42,"HQNAME":"Coffs Harbour City","SUBURB":"Coffs Harbour","STATE":"NSW","POSTCODE":"2450","SES_LEVEL":"Unit","RCR":"Y","QA":"Y","REGCODE":"CNR","UNIT_CODE":"CFS","POINT_X":153.11695,"POINT_Y":-30.2994},"geometry":{"x":17044900.90542265,"y":-3542093.26910043}},{"attributes":{"FID":87,"OBJECTID":171,"HQNAME":"Wauchope","SUBURB":"Wauchope","STATE":"NSW","POSTCODE":"2446","SES_LEVEL":"Unit","RCR":"N","QA":"Y","REGCODE":"MNR","UNIT_CODE":"WHP","POINT_X":152.73416,"POINT_Y":-31.46348},"geometry":{"x":17002288.917605083,"y":-3693088.2619703254}},{"attributes":{"FID":88,"OBJECTID":43,"HQNAME":"Deniliquin-Conargo","SUBURB":"Deniliquin","STATE":"NSW","POSTCODE":"2710","SES_LEVEL":"Unit","RCR":"N","QA":"Y","REGCODE":"MYR","UNIT_CODE":"DQN","POINT_X":144.96443,"POINT_Y":-35.52612},"geometry":{"x":16137366.530837219,"y":-4235610.6063709222}},{"attributes":{"FID":89,"OBJECTID":172,"HQNAME":"Wee Waa","SUBURB":"Wee Waa","STATE":"NSW","POSTCODE":"2388","SES_LEVEL":"Unit","RCR":"Y","QA":"Y","REGCODE":"NMR","UNIT_CODE":"WWA","POINT_X":149.44262,"POINT_Y":-30.22607},"geometry":{"x":16635876.36089905,"y":-3532642.2593299523}},{"attributes":{"FID":90,"OBJECTID":44,"HQNAME":"Condobolin","SUBURB":"Condobolin","STATE":"NSW","POSTCODE":"2877","SES_LEVEL":"Unit","RCR":"Y","QA":"Y","REGCODE":"LAR","UNIT_CODE":"CON","POINT_X":147.15087,"POINT_Y":-33.08771},"geometry":{"x":16380759.918083061,"y":-3906951.79419409}},{"attributes":{"FID":91,"OBJECTID":173,"HQNAME":"Wentworth","SUBURB":"Wentworth","STATE":"NSW","POSTCODE":"2648","SES_LEVEL":"Unit","RCR":"Y","QA":"Y","REGCODE":"MYR","UNIT_CODE":"WNT","POINT_X":141.92734,"POINT_Y":-34.10337},"geometry":{"x":15799279.218569271,"y":-4042690.5511060208}},{"attributes":{"FID":92,"OBJECTID":45,"HQNAME":"Coolamon","SUBURB":"Coolamon","STATE":"NSW","POSTCODE":"2701","SES_LEVEL":"Unit","RCR":"N","QA":"Y","REGCODE":"MER","UNIT_CODE":"CLM","POINT_X":147.20345,"POINT_Y":-34.81415},"geometry":{"x":16386613.097000329,"y":-4138653.4655758026}},{"attributes":{"FID":93,"OBJECTID":174,"HQNAME":"West Wyalong","SUBURB":"West Wyalong","STATE":"NSW","POSTCODE":"2671","SES_LEVEL":"Unit","RCR":"Y","QA":"Y","REGCODE":"LAR","UNIT_CODE":"WWY","POINT_X":147.21292,"POINT_Y":-33.93252},"geometry":{"x":16387667.292529969,"y":-4019744.7057932238}},{"attributes":{"FID":94,"OBJECTID":46,"HQNAME":"Cooranbong","SUBURB":"Cooranbong","STATE":"NSW","POSTCODE":"2265","SES_LEVEL":"Unit","RCR":"Y","QA":"Y","REGCODE":"HUR","UNIT_CODE":"COO","POINT_X":151.44741,"POINT_Y":-33.07902},"geometry":{"x":16859048.56293653,"y":-3905797.2501053759}},{"attributes":{"FID":95,"OBJECTID":175,"HQNAME":"Wilcannia","SUBURB":"Wilcannia","STATE":"NSW","POSTCODE":"2836","SES_LEVEL":"Unit","RCR":"Y","QA":"Y","REGCODE":"FWR","UNIT_CODE":"WIL","POINT_X":143.37511,"POINT_Y":-31.5616},"geometry":{"x":15960444.237564316,"y":-3705900.3909962233}},{"attributes":{"FID":96,"OBJECTID":47,"HQNAME":"Cootamundra","SUBURB":"Cootamundra","STATE":"NSW","POSTCODE":"2590","SES_LEVEL":"Unit","RCR":"Y","QA":"Y","REGCODE":"MER","UNIT_CODE":"CTA","POINT_X":148.02708,"POINT_Y":-34.65387},"geometry":{"x":16478299.16916839,"y":-4116942.3807256473}},{"attributes":{"FID":97,"OBJECTID":176,"HQNAME":"Wingecarribee","SUBURB":"Mittagong","STATE":"NSW","POSTCODE":"2575","SES_LEVEL":"Unit","RCR":"N","QA":"Y","REGCODE":"ISR","UNIT_CODE":"WCB","POINT_X":150.443049328,"POINT_Y":-34.452962335},"geometry":{"x":16747243.644453377,"y":-4089787.1821393929}},{"attributes":{"FID":98,"OBJECTID":48,"HQNAME":"Copmanhurst","SUBURB":"Junction Hill","STATE":"NSW","POSTCODE":"2460","SES_LEVEL":"Unit","RCR":"N","QA":"Y","REGCODE":"CNR","UNIT_CODE":"COP","POINT_X":152.92063,"POINT_Y":-29.64411},"geometry":{"x":17023046.662963931,"y":-3457885.041876425}},{"attributes":{"FID":99,"OBJECTID":177,"HQNAME":"Wingham","SUBURB":"Wingham","STATE":"NSW","POSTCODE":"2429","SES_LEVEL":"Unit","RCR":"N","QA":"Y","REGCODE":"MNR","UNIT_CODE":"WGM","POINT_X":152.37092,"POINT_Y":-31.86699},"geometry":{"x":16961853.225797012,"y":-3745863.6338041448}},{"attributes":{"FID":100,"OBJECTID":178,"HQNAME":"Wollondilly","SUBURB":"Picton","STATE":"NSW","POSTCODE":"2571","SES_LEVEL":"Unit","RCR":"N","QA":"Y","REGCODE":"SSR","UNIT_CODE":"WDY","POINT_X":150.601178675,"POINT_Y":-34.192395523},"geometry":{"x":16764846.522823032,"y":-4054665.3937326511}},{"attributes":{"FID":101,"OBJECTID":49,"HQNAME":"Coraki","SUBURB":"Coraki","STATE":"NSW","POSTCODE":"2471","SES_LEVEL":"Unit","RCR":"N","QA":"Y","REGCODE":"RTR","UNIT_CODE":"CKI","POINT_X":153.28928,"POINT_Y":-28.9895},"geometry":{"x":17064084.593207367,"y":-3374309.6887163003}},{"attributes":{"FID":102,"OBJECTID":50,"HQNAME":"Corindi","SUBURB":"Corindi Beach","STATE":"NSW","POSTCODE":"2456","SES_LEVEL":"Unit","RCR":"N","QA":"Y","REGCODE":"CNR","UNIT_CODE":"COR","POINT_X":153.19433,"POINT_Y":-30.02317},"geometry":{"x":17053514.807605792,"y":-3506528.4793495461}},{"attributes":{"FID":103,"OBJECTID":179,"HQNAME":"Wollongong City","SUBURB":"North Wollongong","STATE":"NSW","POSTCODE":"2500","SES_LEVEL":"Unit","RCR":"N","QA":"Y","REGCODE":"ISR","UNIT_CODE":"WOL","POINT_X":150.89495,"POINT_Y":-34.40247},"geometry":{"x":16797548.997134723,"y":-4082972.7931255577}},{"attributes":{"FID":104,"OBJECTID":180,"HQNAME":"Woodburn","SUBURB":"Woodburn","STATE":"NSW","POSTCODE":"2472","SES_LEVEL":"Unit","RCR":"Y","QA":"Y","REGCODE":"RTR","UNIT_CODE":"WBN","POINT_X":153.33919,"POINT_Y":-29.074},"geometry":{"x":17069640.548995681,"y":-3385067.9530888703}},{"attributes":{"FID":105,"OBJECTID":51,"HQNAME":"Corowa","SUBURB":"Corowa","STATE":"NSW","POSTCODE":"2646","SES_LEVEL":"Unit","RCR":"N","QA":"Y","REGCODE":"MYR","UNIT_CODE":"CWA","POINT_X":146.38435,"POINT_Y":-36.00241},"geometry":{"x":16295431.3021841,"y":-4300952.989157605}},{"attributes":{"FID":106,"OBJECTID":52,"HQNAME":"Cowra","SUBURB":"Cowra","STATE":"NSW","POSTCODE":"2794","SES_LEVEL":"Unit","RCR":"N","QA":"Y","REGCODE":"LAR","UNIT_CODE":"CWT","POINT_X":148.65288,"POINT_Y":-33.84634},"geometry":{"x":16547962.906445157,"y":-4008187.8570741126}},{"attributes":{"FID":107,"OBJECTID":181,"HQNAME":"Wyong","SUBURB":"Wyong","STATE":"NSW","POSTCODE":"2259","SES_LEVEL":"Unit","RCR":"N","QA":"Y","REGCODE":"SNR","UNIT_CODE":"WYG","POINT_X":151.42648,"POINT_Y":-33.28596},"geometry":{"x":16856718.646005157,"y":-3933322.1736060902}},{"attributes":{"FID":108,"OBJECTID":182,"HQNAME":"Warialda","SUBURB":"Warialda","STATE":"NSW","POSTCODE":"2402","SES_LEVEL":"Unit","RCR":"Y","QA":"Y","REGCODE":"NWR","UNIT_CODE":"WRI","POINT_X":150.575718256,"POINT_Y":-29.54012735},"geometry":{"x":16762012.281714551,"y":-3444573.4127661926}},{"attributes":{"FID":109,"OBJECTID":53,"HQNAME":"Crookwell","SUBURB":"Crookwell","STATE":"NSW","POSTCODE":"2583","SES_LEVEL":"Unit","RCR":"N","QA":"Y","REGCODE":"SHR","UNIT_CODE":"CRK","POINT_X":149.46891,"POINT_Y":-34.4487},"geometry":{"x":16638802.950525625,"y":-4089211.7830101103}},{"attributes":{"FID":110,"OBJECTID":183,"HQNAME":"Yamba","SUBURB":"Yamba","STATE":"NSW","POSTCODE":"2464","SES_LEVEL":"Unit","RCR":"N","QA":"Y","REGCODE":"CNR","UNIT_CODE":"YAM","POINT_X":153.34827,"POINT_Y":-29.44013},"geometry":{"x":17070651.329988565,"y":-3431784.8809771859}},{"attributes":{"FID":111,"OBJECTID":54,"HQNAME":"Culcairn","SUBURB":"Culcairn","STATE":"NSW","POSTCODE":"2660","SES_LEVEL":"Unit","RCR":"Y","QA":"Y","REGCODE":"MYR","UNIT_CODE":"CCN","POINT_X":147.0386,"POINT_Y":-35.66928},"geometry":{"x":16368262.078995639,"y":-4255209.7133311359}},{"attributes":{"FID":112,"OBJECTID":184,"HQNAME":"Yetman","SUBURB":"Yetman","STATE":"NSW","POSTCODE":"2410","SES_LEVEL":"Unit","RCR":"Y","QA":"Y","REGCODE":"NWR","UNIT_CODE":"YET","POINT_X":150.78081,"POINT_Y":-28.90315},"geometry":{"x":16784842.990187645,"y":-3363324.9661249318}},{"attributes":{"FID":113,"OBJECTID":55,"HQNAME":"Coleambally","SUBURB":"Darlington Point","STATE":"NSW","POSTCODE":"2706","SES_LEVEL":"Unit","RCR":"N","QA":"Y","REGCODE":"MER","UNIT_CODE":"CLB","POINT_X":145.89038,"POINT_Y":-34.80378},"geometry":{"x":16240442.81326572,"y":-4137247.498519361}},{"attributes":{"FID":114,"OBJECTID":185,"HQNAME":"Young","SUBURB":"Young","STATE":"NSW","POSTCODE":"2594","SES_LEVEL":"Unit","RCR":"N","QA":"Y","REGCODE":"SHR","UNIT_CODE":"YNG","POINT_X":148.28207,"POINT_Y":-34.30665},"geometry":{"x":16506684.526099447,"y":-4070052.327877488}},{"attributes":{"FID":115,"OBJECTID":56,"HQNAME":"Deepwater","SUBURB":"Deepwater","STATE":"NSW","POSTCODE":"2371","SES_LEVEL":"Unit","RCR":"Y","QA":"Y","REGCODE":"NWR","UNIT_CODE":"DEP","POINT_X":151.84718,"POINT_Y":-29.43767},"geometry":{"x":16903550.755585562,"y":-3431470.4336257959}},{"attributes":{"FID":116,"OBJECTID":186,"HQNAME":"Nowra","SUBURB":"South Nowra","STATE":"NSW","POSTCODE":"2541","SES_LEVEL":"Unit","RCR":"N","QA":"Y","REGCODE":"ISR","UNIT_CODE":"NOW","POINT_X":150.59236,"POINT_Y":-34.8938},"geometry":{"x":16763864.832449486,"y":-4149458.3374476722}},{"attributes":{"FID":117,"OBJECTID":57,"HQNAME":"Denman","SUBURB":"Denman","STATE":"NSW","POSTCODE":"2328","SES_LEVEL":"Unit","RCR":"N","QA":"Y","REGCODE":"HUR","UNIT_CODE":"DEN","POINT_X":150.685768831,"POINT_Y":-32.384102048},"geometry":{"x":16774263.0558208,"y":-3813836.269468986}},{"attributes":{"FID":118,"OBJECTID":187,"HQNAME":"Bermagui","SUBURB":"Bermagui","STATE":"NSW","POSTCODE":"2546","SES_LEVEL":"Unit","RCR":"N","QA":"Y","REGCODE":"ISR","UNIT_CODE":"BGI","POINT_X":150.07921,"POINT_Y":-36.42747},"geometry":{"x":16706741.235845877,"y":-4359601.1290454632}},{"attributes":{"FID":119,"OBJECTID":58,"HQNAME":"Dorrigo","SUBURB":"Dorrigo","STATE":"NSW","POSTCODE":"2453","SES_LEVEL":"Unit","RCR":"Y","QA":"Y","REGCODE":"CNR","UNIT_CODE":"DOR","POINT_X":152.70807,"POINT_Y":-30.3362},"geometry":{"x":16999384.592037588,"y":-3546838.8360421215}},{"attributes":{"FID":120,"OBJECTID":188,"HQNAME":"White Cliffs","SUBURB":"White Cliffs","STATE":"NSW","POSTCODE":"2836","SES_LEVEL":"Unit","RCR":"Y","QA":"Y","REGCODE":"FWR","UNIT_CODE":"WHT","POINT_X":143.088190569,"POINT_Y":-30.8514717},"geometry":{"x":15928504.512578487,"y":-3613474.9017640161}},{"attributes":{"FID":121,"OBJECTID":189,"HQNAME":"Tumbarumba Shire","SUBURB":"Tooma","STATE":"NSW","POSTCODE":"2642","SES_LEVEL":"Unit","RCR":"N","QA":"Y","REGCODE":"MYR","UNIT_CODE":"TUM","POINT_X":147.99313,"POINT_Y":-35.7773},"geometry":{"x":16474519.872518556,"y":-4270021.3047264619}},{"attributes":{"FID":122,"OBJECTID":59,"HQNAME":"Dungog","SUBURB":"Dungog","STATE":"NSW","POSTCODE":"2420","SES_LEVEL":"Unit","RCR":"Y","QA":"Y","REGCODE":"HUR","UNIT_CODE":"DNG","POINT_X":151.75033,"POINT_Y":-32.41197},"geometry":{"x":16892769.463046975,"y":-3817510.4092752119}},{"attributes":{"FID":123,"OBJECTID":190,"HQNAME":"Yass","SUBURB":"Yass","STATE":"NSW","POSTCODE":"2582","SES_LEVEL":"Unit","RCR":"N","QA":"Y","REGCODE":"SHR","UNIT_CODE":"YAS","POINT_X":148.90887,"POINT_Y":-34.82279},"geometry":{"x":16576459.582937878,"y":-4139825.013989192}},{"attributes":{"FID":124,"OBJECTID":60,"HQNAME":"Eden","SUBURB":"Eden","STATE":"NSW","POSTCODE":"2550","SES_LEVEL":"Unit","RCR":"Y","QA":"Y","REGCODE":"ISR","UNIT_CODE":"EDN","POINT_X":149.90159,"POINT_Y":-37.05777},"geometry":{"x":16686968.66793129,"y":-4447162.242054}},{"attributes":{"FID":125,"OBJECTID":191,"HQNAME":"Canada Bay","SUBURB":"Five Dock","STATE":"NSW","POSTCODE":"2046","SES_LEVEL":"Unit","RCR":"N","QA":"Y","REGCODE":"SWR","UNIT_CODE":"CAN","POINT_X":151.11553,"POINT_Y":-33.86967},"geometry":{"x":16822103.850380614,"y":-4011315.2879546368}},{"attributes":{"FID":126,"OBJECTID":61,"HQNAME":"Euabalong","SUBURB":"Euabalong","STATE":"NSW","POSTCODE":"2877","SES_LEVEL":"Unit","RCR":"N","QA":"Y","REGCODE":"FWR","UNIT_CODE":"EUA","POINT_X":146.47241,"POINT_Y":-33.11131},"geometry":{"x":16305234.096381448,"y":-3910087.8412831104}},{"attributes":{"FID":127,"OBJECTID":192,"HQNAME":"Holroyd","SUBURB":"Guildford West","STATE":"NSW","POSTCODE":"2161","SES_LEVEL":"Unit","RCR":"N","QA":"Y","REGCODE":"SWR","UNIT_CODE":"HOL","POINT_X":150.95877,"POINT_Y":-33.85473},"geometry":{"x":16804653.407007203,"y":-4009312.454227909}},{"attributes":{"FID":128,"OBJECTID":62,"HQNAME":"Eugowra","SUBURB":"Eugowra","STATE":"NSW","POSTCODE":"2806","SES_LEVEL":"Unit","RCR":"Y","QA":"Y","REGCODE":"CWR","UNIT_CODE":"EUG","POINT_X":148.38112,"POINT_Y":-33.43424},"geometry":{"x":16517710.721613342,"y":-3953084.9247564282}},{"attributes":{"FID":129,"OBJECTID":193,"HQNAME":"Penrith","SUBURB":"Claremont Meadows","STATE":"NSW","POSTCODE":"2760","SES_LEVEL":"Unit","RCR":"N","QA":"Y","REGCODE":"SWR","UNIT_CODE":"PEN","POINT_X":150.75167,"POINT_Y":-33.77617},"geometry":{"x":16781599.140465349,"y":-3998786.577878336}},{"attributes":{"FID":130,"OBJECTID":63,"HQNAME":"Fairfield","SUBURB":"Canley Vale","STATE":"NSW","POSTCODE":"2166","SES_LEVEL":"Unit","RCR":"N","QA":"Y","REGCODE":"SSR","UNIT_CODE":"FFD","POINT_X":150.9445,"POINT_Y":-33.89105},"geometry":{"x":16803064.877875824,"y":-4014182.0681547648}},{"attributes":{"FID":131,"OBJECTID":194,"HQNAME":"Moama","SUBURB":"Moama","STATE":"NSW","POSTCODE":"2731","SES_LEVEL":"Unit","RCR":"N","QA":"Y","REGCODE":"MYR","UNIT_CODE":"MOA","POINT_X":144.76319,"POINT_Y":-36.10524},"geometry":{"x":16114964.596550193,"y":-4315111.9125603056}},{"attributes":{"FID":132,"OBJECTID":64,"HQNAME":"Forbes","SUBURB":"Forbes","STATE":"NSW","POSTCODE":"2871","SES_LEVEL":"Unit","RCR":"Y","QA":"Y","REGCODE":"LAR","UNIT_CODE":"FBS","POINT_X":148.00863,"POINT_Y":-33.35141},"geometry":{"x":16476245.324494272,"y":-3942041.1955840737}},{"attributes":{"FID":133,"OBJECTID":195,"HQNAME":"Moruya","SUBURB":"Moruya","STATE":"NSW","POSTCODE":"2537","SES_LEVEL":"Unit","RCR":"Y","QA":"Y","REGCODE":"ISR","UNIT_CODE":"MOU","POINT_X":150.06021,"POINT_Y":-35.91429},"geometry":{"x":16704626.165493345,"y":-4288834.2080474161}},{"attributes":{"FID":134,"OBJECTID":65,"HQNAME":"Forster Pacific Palms","SUBURB":"Pacific Palms","STATE":"NSW","POSTCODE":"2428","SES_LEVEL":"Unit","RCR":"N","QA":"Y","REGCODE":"MNR","UNIT_CODE":"FPP","POINT_X":152.51473,"POINT_Y":-32.34218},"geometry":{"x":16977862.081787709,"y":-3808311.3572645406}},{"attributes":{"FID":135,"OBJECTID":196,"HQNAME":"South West Rocks","SUBURB":"South West Rocks","STATE":"NSW","POSTCODE":"2431","SES_LEVEL":"Unit","RCR":"N","QA":"Y","REGCODE":"MNR","UNIT_CODE":"SWK","POINT_X":153.0292,"POINT_Y":-30.88911},"geometry":{"x":17035132.620134987,"y":-3618356.32462759}},{"attributes":{"FID":136,"OBJECTID":66,"HQNAME":"Garah","SUBURB":"Garah","STATE":"NSW","POSTCODE":"2405","SES_LEVEL":"Unit","RCR":"N","QA":"Y","REGCODE":"NWR","UNIT_CODE":"GAH","POINT_X":149.633128627,"POINT_Y":-29.074191039},"geometry":{"x":16657083.684188051,"y":-3385092.2853569677}},{"attributes":{"FID":137,"OBJECTID":67,"HQNAME":"Gladstone","SUBURB":"Gladstone","STATE":"NSW","POSTCODE":"2440","SES_LEVEL":"Unit","RCR":"N","QA":"Y","REGCODE":"MNR","UNIT_CODE":"GLD","POINT_X":152.94526,"POINT_Y":-31.027},"geometry":{"x":17025788.462086134,"y":-3636256.1044747271}},{"attributes":{"FID":138,"OBJECTID":197,"HQNAME":"Tomaree","SUBURB":"Corlette","STATE":"NSW","POSTCODE":"2315","SES_LEVEL":"Unit","RCR":"N","QA":"Y","REGCODE":"HUR","UNIT_CODE":"TOM","POINT_X":152.10918,"POINT_Y":-32.71892},"geometry":{"x":16932716.462324582,"y":-3858054.44971368}},{"attributes":{"FID":139,"OBJECTID":68,"HQNAME":"Glen Innes","SUBURB":"Glen Innes","STATE":"NSW","POSTCODE":"2370","SES_LEVEL":"Unit","RCR":"N","QA":"Y","REGCODE":"NWR","UNIT_CODE":"GLN","POINT_X":151.72745,"POINT_Y":-29.72452},"geometry":{"x":16890222.472968984,"y":-3468188.3800730808}},{"attributes":{"FID":140,"OBJECTID":198,"HQNAME":"Yuraygir","SUBURB":"Ulmurra","STATE":"NSW","POSTCODE":"2462","SES_LEVEL":"Unit","RCR":"N","QA":"Y","REGCODE":"CNR","UNIT_CODE":"YUR","POINT_X":153.26615,"POINT_Y":-29.85834},"geometry":{"x":17061509.773425467,"y":-3485353.737422436}},{"attributes":{"FID":141,"OBJECTID":69,"HQNAME":"Gloucester Shire","SUBURB":"Gloucester","STATE":"NSW","POSTCODE":"2422","SES_LEVEL":"Unit","RCR":"Y","QA":"Y","REGCODE":"MNR","UNIT_CODE":"GLS","POINT_X":151.95477,"POINT_Y":-32.02726},"geometry":{"x":16915527.619720962,"y":-3766889.4582496318}},{"attributes":{"FID":142,"OBJECTID":199,"HQNAME":"Harrington","SUBURB":"Harrington","STATE":"NSW","POSTCODE":"2427","SES_LEVEL":"Unit","RCR":"N","QA":"Y","REGCODE":"MNR","UNIT_CODE":"HAR","POINT_X":152.69113,"POINT_Y":-31.86823},"geometry":{"x":16997498.839936618,"y":-3746026.1688460722}},{"attributes":{"FID":143,"OBJECTID":200,"HQNAME":"Baradine","SUBURB":"Baradine","STATE":"NSW","POSTCODE":"2396","SES_LEVEL":"Unit","RCR":"Y","QA":"Y","REGCODE":"MQR","UNIT_CODE":"BDN","POINT_X":149.0671,"POINT_Y":-30.946383333},"geometry":{"x":16594073.665761646,"y":-3625787.9547026241}},{"attributes":{"FID":144,"OBJECTID":70,"HQNAME":"Goolgowi","SUBURB":"Goolgowi","STATE":"NSW","POSTCODE":"2652","SES_LEVEL":"Unit","RCR":"Y","QA":"Y","REGCODE":"MER","UNIT_CODE":"GLG","POINT_X":145.70814,"POINT_Y":-33.97943},"geometry":{"x":16220155.949223964,"y":-4026040.3119156905}},{"attributes":{"FID":145,"OBJECTID":201,"HQNAME":"Nyngan","SUBURB":"Nyngan","STATE":"NSW","POSTCODE":"2825","SES_LEVEL":"Unit","RCR":"N","QA":"Y","REGCODE":"MQR","UNIT_CODE":"NYN","POINT_X":147.197316667,"POINT_Y":-31.563066667},"geometry":{"x":16385930.337321704,"y":-3706092.0049995217}},{"attributes":{"FID":146,"OBJECTID":71,"HQNAME":"Gooloogong","SUBURB":"Gooloogong","STATE":"NSW","POSTCODE":"2805","SES_LEVEL":"Unit","RCR":"N","QA":"Y","REGCODE":"LAR","UNIT_CODE":"GGG","POINT_X":148.432907501,"POINT_Y":-33.613397088},"geometry":{"x":16523475.679862045,"y":-3977008.08227169}},{"attributes":{"FID":147,"OBJECTID":202,"HQNAME":"Carinda","SUBURB":"Walgett","STATE":"NSW","POSTCODE":"2832","SES_LEVEL":"Unit","RCR":"N","QA":"Y","REGCODE":"MQR","UNIT_CODE":"CAR","POINT_X":147.6882,"POINT_Y":-30.465483333},"geometry":{"x":16440575.219920514,"y":-3563524.8136539008}},{"attributes":{"FID":148,"OBJECTID":72,"HQNAME":"Gosford","SUBURB":"Erina","STATE":"NSW","POSTCODE":"2250","SES_LEVEL":"Unit","RCR":"N","QA":"Y","REGCODE":"SNR","UNIT_CODE":"GOS","POINT_X":151.3704,"POINT_Y":-33.44054},"geometry":{"x":16850475.848970689,"y":-3953925.3353162776}},{"attributes":{"FID":149,"OBJECTID":203,"HQNAME":"Collarenebri","SUBURB":"Collarenebri","STATE":"NSW","POSTCODE":"2833","SES_LEVEL":"Unit","RCR":"Y","QA":"Y","REGCODE":"MQR","UNIT_CODE":"CBI","POINT_X":148.581716667,"POINT_Y":-29.542383333},"geometry":{"x":16540041.040236386,"y":-3444862.0731496504}},{"attributes":{"FID":150,"OBJECTID":73,"HQNAME":"Grafton City","SUBURB":"Grafton","STATE":"NSW","POSTCODE":"2460","SES_LEVEL":"Unit","RCR":"Y","QA":"Y","REGCODE":"CNR","UNIT_CODE":"GRF","POINT_X":152.92416,"POINT_Y":-29.68429},"geometry":{"x":17023439.620768204,"y":-3463032.4773110505}},{"attributes":{"FID":151,"OBJECTID":204,"HQNAME":"Dubbo","SUBURB":"Dubbo","STATE":"NSW","POSTCODE":"2830","SES_LEVEL":"Unit","RCR":"N","QA":"Y","REGCODE":"MQR","UNIT_CODE":"DBO","POINT_X":148.58327,"POINT_Y":-32.24422},"geometry":{"x":16540213.956609754,"y":-3795411.1630310118}},{"attributes":{"FID":152,"OBJECTID":74,"HQNAME":"Grenfell","SUBURB":"Grenfell","STATE":"NSW","POSTCODE":"2810","SES_LEVEL":"Unit","RCR":"Y","QA":"Y","REGCODE":"LAR","UNIT_CODE":"GFL","POINT_X":148.15901,"POINT_Y":-33.89193},"geometry":{"x":16492985.54954394,"y":-4014300.0799858486}},{"attributes":{"FID":153,"OBJECTID":205,"HQNAME":"Dunedoo","SUBURB":"Dunedoo","STATE":"NSW","POSTCODE":"2844","SES_LEVEL":"Unit","RCR":"Y","QA":"Y","REGCODE":"MQR","UNIT_CODE":"DUN","POINT_X":149.401183333,"POINT_Y":-32.014466667},"geometry":{"x":16631263.652318208,"y":-3765209.7520615105}},{"attributes":{"FID":154,"OBJECTID":75,"HQNAME":"Griffith","SUBURB":"Griffith","STATE":"NSW","POSTCODE":"2680","SES_LEVEL":"Unit","RCR":"Y","QA":"Y","REGCODE":"MER","UNIT_CODE":"GRI","POINT_X":146.05373,"POINT_Y":-34.29759},"geometry":{"x":16258626.852053534,"y":-4068831.4318448775}},{"attributes":{"FID":155,"OBJECTID":206,"HQNAME":"Gilgandra","SUBURB":"Gilgandra","STATE":"NSW","POSTCODE":"2827","SES_LEVEL":"Unit","RCR":"Y","QA":"Y","REGCODE":"MQR","UNIT_CODE":"GIL","POINT_X":148.658433333,"POINT_Y":-31.7117},"geometry":{"x":16548581.100536456,"y":-3725525.9833355495}},{"attributes":{"FID":156,"OBJECTID":76,"HQNAME":"Gundagai","SUBURB":"Gundagai","STATE":"NSW","POSTCODE":"2722","SES_LEVEL":"Unit","RCR":"Y","QA":"Y","REGCODE":"MER","UNIT_CODE":"GND","POINT_X":148.10121,"POINT_Y":-35.06257},"geometry":{"x":16486551.283040851,"y":-4172387.4113746081}},{"attributes":{"FID":157,"OBJECTID":207,"HQNAME":"Lightning Ridge","SUBURB":"Lightning Ridge","STATE":"NSW","POSTCODE":"2834","SES_LEVEL":"Unit","RCR":"Y","QA":"Y","REGCODE":"MQR","UNIT_CODE":"LRG","POINT_X":147.981633333,"POINT_Y":-29.43105},"geometry":{"x":16473240.06907258,"y":-3430624.27575078}},{"attributes":{"FID":158,"OBJECTID":77,"HQNAME":"Gunnedah","SUBURB":"Gunnedah","STATE":"NSW","POSTCODE":"2380","SES_LEVEL":"Unit","RCR":"Y","QA":"Y","REGCODE":"NMR","UNIT_CODE":"GUN","POINT_X":150.2317,"POINT_Y":-30.98291},"geometry":{"x":16723716.34471105,"y":-3630529.8807473951}},{"attributes":{"FID":159,"OBJECTID":208,"HQNAME":"Mudgee","SUBURB":"Mudgee","STATE":"NSW","POSTCODE":"2850","SES_LEVEL":"Unit","RCR":"N","QA":"Y","REGCODE":"MQR","UNIT_CODE":"MGE","POINT_X":149.567533333,"POINT_Y":-32.5832},"geometry":{"x":16649781.649635982,"y":-3840110.5167897758}},{"attributes":{"FID":160,"OBJECTID":78,"HQNAME":"Collector","SUBURB":"Gunning","STATE":"NSW","POSTCODE":"2581","SES_LEVEL":"Unit","RCR":"N","QA":"Y","REGCODE":"SHR","UNIT_CODE":"CLR","POINT_X":149.26659,"POINT_Y":-34.78169},"geometry":{"x":16616280.791171834,"y":-4134253.1209369544}},{"attributes":{"FID":161,"OBJECTID":209,"HQNAME":"Narromine","SUBURB":"Narromine","STATE":"NSW","POSTCODE":"2821","SES_LEVEL":"Unit","RCR":"N","QA":"Y","REGCODE":"MQR","UNIT_CODE":"NME","POINT_X":148.246916667,"POINT_Y":-32.239666667},"geometry":{"x":16502771.274862831,"y":-3794811.8806737848}},{"attributes":{"FID":162,"OBJECTID":79,"HQNAME":"Guyra","SUBURB":"Guyra","STATE":"NSW","POSTCODE":"2365","SES_LEVEL":"Unit","RCR":"N","QA":"Y","REGCODE":"NMR","UNIT_CODE":"GUY","POINT_X":151.67265,"POINT_Y":-30.22952},"geometry":{"x":16884122.164898567,"y":-3533086.7485654396}},{"attributes":{"FID":163,"OBJECTID":210,"HQNAME":"Rylstone","SUBURB":"Rylstone","STATE":"NSW","POSTCODE":"2849","SES_LEVEL":"Unit","RCR":"N","QA":"Y","REGCODE":"MQR","UNIT_CODE":"RYL","POINT_X":149.969608587,"POINT_Y":-32.799077301},"geometry":{"x":16694540.462172,"y":-3868665.1023230352}},{"attributes":{"FID":164,"OBJECTID":80,"HQNAME":"Harden","SUBURB":"Harden","STATE":"NSW","POSTCODE":"2587","SES_LEVEL":"Unit","RCR":"Y","QA":"Y","REGCODE":"SHR","UNIT_CODE":"HDN","POINT_X":148.36779,"POINT_Y":-34.55285},"geometry":{"x":16516226.832860904,"y":-4103280.0603747522}},{"attributes":{"FID":165,"OBJECTID":211,"HQNAME":"Walgett","SUBURB":"Walgett","STATE":"NSW","POSTCODE":"2832","SES_LEVEL":"Unit","RCR":"Y","QA":"Y","REGCODE":"MQR","UNIT_CODE":"WGT","POINT_X":148.122133333,"POINT_Y":-30.023683333},"geometry":{"x":16488880.457554361,"y":-3506594.4788623727}},{"attributes":{"FID":166,"OBJECTID":81,"HQNAME":"Port Macquarie Hastings","SUBURB":"Port Macquarie","STATE":"NSW","POSTCODE":"2444","SES_LEVEL":"Unit","RCR":"Y","QA":"Y","REGCODE":"MNR","UNIT_CODE":"PTM","POINT_X":152.893175848,"POINT_Y":-31.444918449},"geometry":{"x":17019990.480828062,"y":-3690666.0779333143}},{"attributes":{"FID":167,"OBJECTID":212,"HQNAME":"Warren","SUBURB":"Warren","STATE":"NSW","POSTCODE":"2824","SES_LEVEL":"Unit","RCR":"N","QA":"Y","REGCODE":"MQR","UNIT_CODE":"WRN","POINT_X":147.83353,"POINT_Y":-31.69886},"geometry":{"x":16456753.28157573,"y":-3723845.9116421337}},{"attributes":{"FID":168,"OBJECTID":82,"HQNAME":"Hawkesbury","SUBURB":"Wilberforce","STATE":"NSW","POSTCODE":"2756","SES_LEVEL":"Unit","RCR":"Y","QA":"Y","REGCODE":"SWR","UNIT_CODE":"HAW","POINT_X":150.82893,"POINT_Y":-33.55289},"geometry":{"x":16790199.684310563,"y":-3968922.9208547822}},{"attributes":{"FID":169,"OBJECTID":213,"HQNAME":"Wellington","SUBURB":"Wellington","STATE":"NSW","POSTCODE":"2820","SES_LEVEL":"Unit","RCR":"Y","QA":"Y","REGCODE":"MQR","UNIT_CODE":"WTN","POINT_X":148.945666667,"POINT_Y":-32.550033333},"geometry":{"x":16580555.76905092,"y":-3835729.5903398842}},{"attributes":{"FID":170,"OBJECTID":83,"HQNAME":"Hay","SUBURB":"Hay","STATE":"NSW","POSTCODE":"2711","SES_LEVEL":"Unit","RCR":"Y","QA":"Y","REGCODE":"MER","UNIT_CODE":"HAY","POINT_X":144.83337,"POINT_Y":-34.49801},"geometry":{"x":16122776.998320213,"y":-4095870.2426620838}},{"attributes":{"FID":171,"OBJECTID":214,"HQNAME":"Glengarry","SUBURB":"Glengarry Opal Fields","STATE":"NSW","POSTCODE":"2823","SES_LEVEL":"Unit","RCR":"Y","QA":"Y","REGCODE":"MQR","UNIT_CODE":"GGY","POINT_X":147.616033333,"POINT_Y":-29.670116667},"geometry":{"x":16432541.6632603,"y":-3461216.505229082}},{"attributes":{"FID":172,"OBJECTID":84,"HQNAME":"Hillston","SUBURB":"Hillston","STATE":"NSW","POSTCODE":"2675","SES_LEVEL":"Unit","RCR":"Y","QA":"Y","REGCODE":"MER","UNIT_CODE":"HIL","POINT_X":145.53652787,"POINT_Y":-33.487734716},"geometry":{"x":16201052.174277132,"y":-3960222.9806894874}},{"attributes":{"FID":173,"OBJECTID":215,"HQNAME":"Coonamble","SUBURB":"Coonamble","STATE":"NSw","POSTCODE":"2829","SES_LEVEL":"Unit","RCR":"Y","QA":"Y","REGCODE":"MQR","UNIT_CODE":"CBL","POINT_X":148.3783,"POINT_Y":-30.953016667},"geometry":{"x":16517396.800522208,"y":-3626648.9655123223}},{"attributes":{"FID":174,"OBJECTID":85,"HQNAME":"Holbrook","SUBURB":"Holbrook","STATE":"NSW","POSTCODE":"2644","SES_LEVEL":"Unit","RCR":"Y","QA":"Y","REGCODE":"MYR","UNIT_CODE":"HBK","POINT_X":147.30986,"POINT_Y":-35.71858},"geometry":{"x":16398458.604062358,"y":-4261967.187581609}},{"attributes":{"FID":175,"OBJECTID":216,"HQNAME":"Liverpool Plains Shire","SUBURB":"Quirindi","STATE":"NSW","POSTCODE":"2343","SES_LEVEL":"Unit","RCR":"N","QA":"Y","REGCODE":"NMR","UNIT_CODE":"LPS","POINT_X":150.673,"POINT_Y":-31.503},"geometry":{"x":16772841.636012521,"y":-3698247.0126982569}},{"attributes":{"FID":176,"OBJECTID":86,"HQNAME":"Hornsby","SUBURB":"Thornleigh","STATE":"NSW","POSTCODE":"2120","SES_LEVEL":"Unit","RCR":"N","QA":"Y","REGCODE":"SNR","UNIT_CODE":"HBY","POINT_X":151.0799,"POINT_Y":-33.72112},"geometry":{"x":16818137.53691699,"y":-3991416.4449544018}},{"attributes":{"FID":177,"OBJECTID":217,"HQNAME":"Khancoban","SUBURB":"Khancoban","STATE":"NSW","POSTCODE":"2642","SES_LEVEL":"Unit","RCR":"N","QA":"Y","REGCODE":"MYR","UNIT_CODE":"KHN","POINT_X":148.130455739,"POINT_Y":-36.216395702},"geometry":{"x":16489806.90387705,"y":-4330438.0852222452}},{"attributes":{"FID":178,"OBJECTID":87,"HQNAME":"Hunters Hill","SUBURB":"Gladesville","STATE":"NSW","POSTCODE":"2111","SES_LEVEL":"Unit","RCR":"N","QA":"Y","REGCODE":"SNR","UNIT_CODE":"HHL","POINT_X":151.12997,"POINT_Y":-33.83746},"geometry":{"x":16823711.303825654,"y":-4006997.7007491738}},{"attributes":{"FID":179,"OBJECTID":218,"HQNAME":"Packsaddle","SUBURB":"Packsaddle","STATE":"NSW","POSTCODE":"2880","SES_LEVEL":"Unit","RCR":" ","QA":" ","REGCODE":"FWR","UNIT_CODE":"PAC","POINT_X":141.966944,"POINT_Y":-30.61},"geometry":{"x":15803687.915488817,"y":-3582203.1240023426}},{"attributes":{"FID":180,"OBJECTID":88,"HQNAME":"Hurstville","SUBURB":"Peakhurst","STATE":"NSW","POSTCODE":"2210","SES_LEVEL":"Unit","RCR":"N","QA":"Y","REGCODE":"SSR","UNIT_CODE":"HVL","POINT_X":151.06283,"POINT_Y":-33.96852},"geometry":{"x":16816237.313222263,"y":-4024575.8142519328}},{"attributes":{"FID":181,"OBJECTID":219,"HQNAME":"Batemans Bay","SUBURB":"Batemans Bay","STATE":"NSW","POSTCODE":"2536","SES_LEVEL":"Unit","RCR":" ","QA":" ","REGCODE":"ISR","UNIT_CODE":"BMB","POINT_X":150.174561352,"POINT_Y":-35.721820661},"geometry":{"x":16717355.69975582,"y":-4262411.5264503164}},{"attributes":{"FID":182,"OBJECTID":89,"HQNAME":"Inverell","SUBURB":"Inverell","STATE":"NSW","POSTCODE":"2360","SES_LEVEL":"Unit","RCR":"N","QA":"Y","REGCODE":"NWR","UNIT_CODE":"IVL","POINT_X":151.13769,"POINT_Y":-29.75746},"geometry":{"x":16824570.690093841,"y":-3472411.5309529644}},{"attributes":{"FID":183,"OBJECTID":220,"HQNAME":"State","SUBURB":"Wollongong","STATE":"NSW","POSTCODE":"2500","SES_LEVEL":"State","RCR":"N","QA":"Y","REGCODE":"ISR","UNIT_CODE":" ","POINT_X":150.89114,"POINT_Y":-34.42418},"geometry":{"x":16797124.869876035,"y":-4085902.2460401743}},{"attributes":{"FID":184,"OBJECTID":90,"HQNAME":"Ivanhoe","SUBURB":"Ivanhoe","STATE":"NSW","POSTCODE":"2878","SES_LEVEL":"Unit","RCR":"N","QA":"Y","REGCODE":"FWR","UNIT_CODE":"IVH","POINT_X":144.300271667,"POINT_Y":-32.897537358},"geometry":{"x":16063432.763277464,"y":-3881711.645214417}},{"attributes":{"FID":185,"OBJECTID":221,"HQNAME":"Sydney Southern","SUBURB":"Bankstown","STATE":"NSW","POSTCODE":"2220","SES_LEVEL":"Region","RCR":"N","QA":"Y","REGCODE":"SSR","UNIT_CODE":" ","POINT_X":151.028833688,"POINT_Y":-33.934431732},"geometry":{"x":16812452.861080714,"y":-4020001.2041664207}},{"attributes":{"FID":186,"OBJECTID":91,"HQNAME":"Jerilderie","SUBURB":"Jerilderie","STATE":"NSW","POSTCODE":"2716","SES_LEVEL":"Unit","RCR":"N","QA":"Y","REGCODE":"MYR","UNIT_CODE":"JER","POINT_X":145.72584,"POINT_Y":-35.35547},"geometry":{"x":16222126.3042869,"y":-4212293.6403045151}},{"attributes":{"FID":187,"OBJECTID":222,"HQNAME":"Central West","SUBURB":"Bathurst","STATE":"NSW","POSTCODE":"2795","SES_LEVEL":"Region","RCR":"N","QA":"Y","REGCODE":"CWR","UNIT_CODE":" ","POINT_X":149.54324,"POINT_Y":-33.41425},"geometry":{"x":16647077.328220066,"y":-3950418.6930256975}},{"attributes":{"FID":188,"OBJECTID":92,"HQNAME":"Junee","SUBURB":"Junee","STATE":"NSW","POSTCODE":"2663","SES_LEVEL":"Unit","RCR":"N","QA":"Y","REGCODE":"MER","UNIT_CODE":"JUN","POINT_X":147.585986632,"POINT_Y":-34.869001744},"geometry":{"x":16429196.880075488,"y":-4146093.2234782097}},{"attributes":{"FID":189,"OBJECTID":223,"HQNAME":"Far West","SUBURB":"Cobar","STATE":"NSW","POSTCODE":"2835","SES_LEVEL":"Region","RCR":"N","QA":"Y","REGCODE":"FWR","UNIT_CODE":" ","POINT_X":145.84038,"POINT_Y":-31.4956},"geometry":{"x":16234876.838549722,"y":-3697280.8861942296}},{"attributes":{"FID":190,"OBJECTID":93,"HQNAME":"Stroud","SUBURB":"Girvan","STATE":"NSW","POSTCODE":"2425","SES_LEVEL":"Unit","RCR":"N","QA":"Y","REGCODE":"MNR","UNIT_CODE":"STO","POINT_X":151.962741729,"POINT_Y":-32.467228608},"geometry":{"x":16916415.028555345,"y":-3824799.11909347}},{"attributes":{"FID":191,"OBJECTID":224,"HQNAME":"Richmond\\Tweed","SUBURB":"Goonellabah","STATE":"NSW","POSTCODE":"2480","SES_LEVEL":"Region","RCR":"N","QA":"Y","REGCODE":"RTR","UNIT_CODE":" ","POINT_X":153.34749,"POINT_Y":-28.82121},"geometry":{"x":17070564.500757653,"y":-3352909.6958592813}},{"attributes":{"FID":192,"OBJECTID":225,"HQNAME":"Southern Highlands","SUBURB":"Goulburn","STATE":"NSW","POSTCODE":"2580","SES_LEVEL":"Region","RCR":"N","QA":"Y","REGCODE":"SHR","UNIT_CODE":" ","POINT_X":149.69674,"POINT_Y":-34.76368},"geometry":{"x":16664164.8701233,"y":-4131812.3949878849}},{"attributes":{"FID":193,"OBJECTID":94,"HQNAME":"Kempsey Shire","SUBURB":"West Kempsey","STATE":"NSW","POSTCODE":"2440","SES_LEVEL":"Unit","RCR":"Y","QA":"Y","REGCODE":"MNR","UNIT_CODE":"KPS","POINT_X":152.814058675,"POINT_Y":-31.062581075},"geometry":{"x":17011183.197400298,"y":-3640879.1574383546}},{"attributes":{"FID":194,"OBJECTID":95,"HQNAME":"Kiama","SUBURB":"Kiama","STATE":"NSW","POSTCODE":"2533","SES_LEVEL":"Unit","RCR":"Y","QA":"Y","REGCODE":"ISR","UNIT_CODE":"KMA","POINT_X":150.84608,"POINT_Y":-34.66435},"geometry":{"x":16792108.813634612,"y":-4118360.6874805521}},{"attributes":{"FID":195,"OBJECTID":226,"HQNAME":"Clarence-Nambucca","SUBURB":"South Grafton","STATE":"NSW","POSTCODE":"2460","SES_LEVEL":"Region","RCR":"N","QA":"Y","REGCODE":"CNR","UNIT_CODE":" ","POINT_X":152.94464,"POINT_Y":-29.72362},"geometry":{"x":17025719.443941034,"y":-3468073.0129570812}},{"attributes":{"FID":196,"OBJECTID":96,"HQNAME":"Kogarah","SUBURB":"Carss Park","STATE":"NSW","POSTCODE":"2221","SES_LEVEL":"Unit","RCR":"N","QA":"Y","REGCODE":"SSR","UNIT_CODE":"KOG","POINT_X":151.11909,"POINT_Y":-33.98138},"geometry":{"x":16822500.147773471,"y":-4026302.0891516078}},{"attributes":{"FID":197,"OBJECTID":227,"HQNAME":"Namoi","SUBURB":"Gunnedah","STATE":"NSW","POSTCODE":"2380","SES_LEVEL":"Region","RCR":"N","QA":"Y","REGCODE":"NMR","UNIT_CODE":" ","POINT_X":150.23349,"POINT_Y":-30.97671},"geometry":{"x":16723915.606599228,"y":-3629724.8631241946}},{"attributes":{"FID":198,"OBJECTID":97,"HQNAME":"Ku-ring-gai","SUBURB":"Wahroonga","STATE":"NSW","POSTCODE":"2076","SES_LEVEL":"Unit","RCR":"N","QA":"Y","REGCODE":"SNR","UNIT_CODE":"KRG","POINT_X":151.138880238,"POINT_Y":-33.701895571},"geometry":{"x":16824703.1869755,"y":-3988843.778570381}},{"attributes":{"FID":199,"OBJECTID":228,"HQNAME":"Sydney Northern","SUBURB":"Hornsby","STATE":"NSW","POSTCODE":"2077","SES_LEVEL":"Region","RCR":"N","QA":"Y","REGCODE":"SNR","UNIT_CODE":" ","POINT_X":151.09948,"POINT_Y":-33.7078},"geometry":{"x":16820317.17254553,"y":-3989633.8643503473}},{"attributes":{"FID":200,"OBJECTID":98,"HQNAME":"Kyogle","SUBURB":"Kyogle","STATE":"NSW","POSTCODE":"2474","SES_LEVEL":"Unit","RCR":"Y","QA":"Y","REGCODE":"RTR","UNIT_CODE":"KYG","POINT_X":153.00168,"POINT_Y":-28.62471},"geometry":{"x":17032069.107644502,"y":-3327966.1917305333}},{"attributes":{"FID":201,"OBJECTID":229,"HQNAME":"Murray","SUBURB":"Lavington","STATE":"NSW","POSTCODE":"2641","SES_LEVEL":"Region","RCR":"N","QA":"Y","REGCODE":"MYR","UNIT_CODE":" ","POINT_X":146.96094,"POINT_Y":-36.04206},"geometry":{"x":16359617.007364083,"y":-4306410.3073714338}},{"attributes":{"FID":202,"OBJECTID":99,"HQNAME":"Lake Cargelligo","SUBURB":"Lake Cargelligo","STATE":"NSW","POSTCODE":"2672","SES_LEVEL":"Unit","RCR":"Y","QA":"Y","REGCODE":"LAR","UNIT_CODE":"LCG","POINT_X":146.37893,"POINT_Y":-33.30115},"geometry":{"x":16294827.95039515,"y":-3935345.1492714649}},{"attributes":{"FID":203,"OBJECTID":230,"HQNAME":"Hunter","SUBURB":"Metford","STATE":"NSW","POSTCODE":"2323","SES_LEVEL":"Region","RCR":"N","QA":"Y","REGCODE":"HUR","UNIT_CODE":" ","POINT_X":151.59906,"POINT_Y":-32.762},"geometry":{"x":16875930.163695704,"y":-3863755.88601382}},{"attributes":{"FID":204,"OBJECTID":100,"HQNAME":"Lake Macquarie City","SUBURB":"Boolaroo","STATE":"NSW","POSTCODE":"2284","SES_LEVEL":"Unit","RCR":"N","QA":"Y","REGCODE":"HUR","UNIT_CODE":"LMQ","POINT_X":151.61708,"POINT_Y":-32.95169},"geometry":{"x":16877936.140928812,"y":-3888893.3733272641}},{"attributes":{"FID":205,"OBJECTID":231,"HQNAME":"North West","SUBURB":"Moree","STATE":"NSW","POSTCODE":"2400","SES_LEVEL":"Region","RCR":"N","QA":"Y","REGCODE":"NWR","UNIT_CODE":" ","POINT_X":149.843476016,"POINT_Y":-29.47805119},"geometry":{"x":16680499.44843531,"y":-3436633.0873385603}},{"attributes":{"FID":206,"OBJECTID":101,"HQNAME":"Lawrence","SUBURB":"Lawrence","STATE":"NSW","POSTCODE":"2460","SES_LEVEL":"Unit","RCR":"N","QA":"Y","REGCODE":"CNR","UNIT_CODE":"LAW","POINT_X":153.09885,"POINT_Y":-29.49047},"geometry":{"x":17042886.022602323,"y":-3438221.2207599389}},{"attributes":{"FID":207,"OBJECTID":232,"HQNAME":"Lachlan","SUBURB":"Parkes","STATE":"NSW","POSTCODE":"2870","SES_LEVEL":"Region","RCR":"N","QA":"Y","REGCODE":"LAR","UNIT_CODE":" ","POINT_X":148.16252,"POINT_Y":-33.15224},"geometry":{"x":16493376.2809175,"y":-3915528.7553114705}},{"attributes":{"FID":208,"OBJECTID":102,"HQNAME":"Leeton","SUBURB":"Leeton","STATE":"NSW","POSTCODE":"2705","SES_LEVEL":"Unit","RCR":"N","QA":"Y","REGCODE":"MER","UNIT_CODE":"LTN","POINT_X":146.392300201,"POINT_Y":-34.564412777},"geometry":{"x":16296316.314430458,"y":-4104843.0114982286}},{"attributes":{"FID":209,"OBJECTID":233,"HQNAME":"Sydney Western","SUBURB":"Seven Hills","STATE":"NSW","POSTCODE":"2147","SES_LEVEL":"Region","RCR":"N","QA":"Y","REGCODE":"SWR","UNIT_CODE":" ","POINT_X":150.95288,"POINT_Y":-33.77502},"geometry":{"x":16803997.735202502,"y":-3998632.5666668946}},{"attributes":{"FID":210,"OBJECTID":103,"HQNAME":"Lismore City","SUBURB":"Lismore","STATE":"NSW","POSTCODE":"2480","SES_LEVEL":"Unit","RCR":"Y","QA":"Y","REGCODE":"RTR","UNIT_CODE":"LSY","POINT_X":153.290299475,"POINT_Y":-28.802690627},"geometry":{"x":17064198.080636777,"y":-3350556.8624353707}},{"attributes":{"FID":211,"OBJECTID":234,"HQNAME":"Mid North Coast","SUBURB":"Taree","STATE":"NSW","POSTCODE":"2430","SES_LEVEL":"Region","RCR":"N","QA":"Y","REGCODE":"MNR","UNIT_CODE":" ","POINT_X":152.42709,"POINT_Y":-31.87945},"geometry":{"x":16968106.04159417,"y":-3747496.9481045143}},{"attributes":{"FID":212,"OBJECTID":104,"HQNAME":"Lithgow","SUBURB":"Lithgow","STATE":"NSW","POSTCODE":"2790","SES_LEVEL":"Unit","RCR":"N","QA":"Y","REGCODE":"CWR","UNIT_CODE":"LGW","POINT_X":150.15511,"POINT_Y":-33.48501},"geometry":{"x":16715190.385038683,"y":-3959859.3025018736}},{"attributes":{"FID":213,"OBJECTID":235,"HQNAME":"Murrumbidgee","SUBURB":"Wagga Wagga","STATE":"NSW","POSTCODE":"2650","SES_LEVEL":"Region","RCR":"N","QA":"Y","REGCODE":"MER","UNIT_CODE":" ","POINT_X":147.33027,"POINT_Y":-35.12936},"geometry":{"x":16400730.6348361,"y":-4181474.5765672415}},{"attributes":{"FID":214,"OBJECTID":105,"HQNAME":"Liverpool","SUBURB":"Liverpool","STATE":"NSW","POSTCODE":"2170","SES_LEVEL":"Unit","RCR":"N","QA":"Y","REGCODE":"SSR","UNIT_CODE":"LVP","POINT_X":150.91033,"POINT_Y":-33.93037},"geometry":{"x":16799261.09087833,"y":-4019456.2460906934}},{"attributes":{"FID":215,"OBJECTID":236,"HQNAME":"Illawarra South Coast","SUBURB":"Wollongong","STATE":"NSW","POSTCODE":"2500","SES_LEVEL":"Region","RCR":"N","QA":"Y","REGCODE":"ISR","UNIT_CODE":" ","POINT_X":150.87285,"POINT_Y":-34.44412},"geometry":{"x":16795088.836390957,"y":-4088593.533143952}},{"attributes":{"FID":216,"OBJECTID":106,"HQNAME":"Lord Howe Island","SUBURB":"Lord Howe Island","STATE":"NSW","POSTCODE":"2898","SES_LEVEL":"Unit","RCR":"N","QA":"Y","REGCODE":"MNR","UNIT_CODE":"LHI","POINT_X":159.068975698,"POINT_Y":-31.530624077},"geometry":{"x":17707477.375261981,"y":-3701854.2222427959}},{"attributes":{"FID":217,"OBJECTID":237,"HQNAME":"Armidale-Dumaresq","SUBURB":"Armidale","STATE":"NSW","POSTCODE":"2350","SES_LEVEL":"Unit","RCR":"Y","QA":"Y","REGCODE":"NMR","UNIT_CODE":"ARM","POINT_X":151.65285,"POINT_Y":-30.5172},"geometry":{"x":16881918.038994979,"y":-3570205.8331000684}},{"attributes":{"FID":218,"OBJECTID":107,"HQNAME":"Maclean","SUBURB":"Maclean","STATE":"NSW","POSTCODE":"2463","SES_LEVEL":"Unit","RCR":"Y","QA":"Y","REGCODE":"CNR","UNIT_CODE":"MCL","POINT_X":153.196449162,"POINT_Y":-29.461733668},"geometry":{"x":17053750.71161468,"y":-3434546.6777304215}},{"attributes":{"FID":219,"OBJECTID":238,"HQNAME":"Ashfield - Leichhardt","SUBURB":"Haberfield","STATE":"NSW","POSTCODE":"2045","SES_LEVEL":"Unit","RCR":"N","QA":"Y","REGCODE":"SWR","UNIT_CODE":"ASL","POINT_X":151.13921,"POINT_Y":-33.87973},"geometry":{"x":16824739.8959225,"y":-4012664.113770002}},{"attributes":{"FID":220,"OBJECTID":108,"HQNAME":"Maitland City","SUBURB":"Rutherford","STATE":"NSW","POSTCODE":"2320","SES_LEVEL":"Unit","RCR":"N","QA":"Y","REGCODE":"HUR","UNIT_CODE":"MAI","POINT_X":151.53973,"POINT_Y":-32.71611},"geometry":{"x":16869325.578306142,"y":-3857682.6550628417}},{"attributes":{"FID":221,"OBJECTID":239,"HQNAME":"Cooma-Monaro","SUBURB":"Cooma","STATE":"NSW","POSTCODE":"2630","SES_LEVEL":"Unit","RCR":"Y","QA":"Y","REGCODE":"SHR","UNIT_CODE":"OOM","POINT_X":149.1499,"POINT_Y":-36.22475},"geometry":{"x":16603290.919873027,"y":-4331590.85661136}},{"attributes":{"FID":222,"OBJECTID":109,"HQNAME":"Manilla","SUBURB":"Manilla","STATE":"NSW","POSTCODE":"2346","SES_LEVEL":"Unit","RCR":"N","QA":"Y","REGCODE":"NMR","UNIT_CODE":"MNL","POINT_X":150.72672,"POINT_Y":-30.75596},"geometry":{"x":16778821.719020166,"y":-3601096.29512226}},{"attributes":{"FID":223,"OBJECTID":240,"HQNAME":"Goulburn","SUBURB":"Goulburn","STATE":"NSW","POSTCODE":"2580","SES_LEVEL":"Unit","RCR":"N","QA":"Y","REGCODE":"SHR","UNIT_CODE":"GBN","POINT_X":149.71321,"POINT_Y":-34.75789},"geometry":{"x":16665998.302135875,"y":-4131027.8438511146}},{"attributes":{"FID":224,"OBJECTID":110,"HQNAME":"Manly","SUBURB":"Balgowlah","STATE":"NSW","POSTCODE":"2093","SES_LEVEL":"Unit","RCR":"N","QA":"Y","REGCODE":"SNR","UNIT_CODE":"MAN","POINT_X":151.26774,"POINT_Y":-33.78891},"geometry":{"x":16839047.790066175,"y":-4000492.892733579}},{"attributes":{"FID":225,"OBJECTID":241,"HQNAME":"Tamworth Regional Council","SUBURB":"Tamworth","STATE":"NSW","POSTCODE":"2340","SES_LEVEL":"Unit","RCR":"Y","QA":"Y","REGCODE":"NMR","UNIT_CODE":"TMW","POINT_X":150.91024,"POINT_Y":-31.09186},"geometry":{"x":16799251.07198235,"y":-3644684.6683755089}},{"attributes":{"FID":226,"OBJECTID":111,"HQNAME":"Marrickville","SUBURB":"Marrickville","STATE":"NSW","POSTCODE":"2204","SES_LEVEL":"Unit","RCR":"N","QA":"Y","REGCODE":"SSR","UNIT_CODE":"MAR","POINT_X":151.15022,"POINT_Y":-33.91052},"geometry":{"x":16825965.52351743,"y":-4016793.3674158687}},{"attributes":{"FID":227,"OBJECTID":242,"HQNAME":"Warringah-Pittwater","SUBURB":"Terrey Hills","STATE":"NSW","POSTCODE":"2084","SES_LEVEL":"Unit","RCR":"N","QA":"Y","REGCODE":"SNR","UNIT_CODE":"WPW","POINT_X":151.22234,"POINT_Y":-33.69317},"geometry":{"x":16833993.885180458,"y":-3987676.2884411351}},{"attributes":{"FID":228,"OBJECTID":112,"HQNAME":"Menindee","SUBURB":"Menindee","STATE":"NSW","POSTCODE":"2879","SES_LEVEL":"Unit","RCR":"Y","QA":"Y","REGCODE":"FWR","UNIT_CODE":"MEN","POINT_X":142.414109047,"POINT_Y":-32.388368473},"geometry":{"x":15853466.100902043,"y":-3814398.6854821234}},{"attributes":{"FID":229,"OBJECTID":243,"HQNAME":"Waverley-Woollahra","SUBURB":"Waverley","STATE":"NSW","POSTCODE":"2204","SES_LEVEL":"Unit","RCR":"N","QA":"Y","REGCODE":"SSR","UNIT_CODE":"WVW","POINT_X":151.205017154,"POINT_Y":-33.909290541},"geometry":{"x":16832065.514796134,"y":-4016628.4558195262}},{"attributes":{"FID":230,"OBJECTID":113,"HQNAME":"Merriwa","SUBURB":"Merriwa","STATE":"NSW","POSTCODE":"2329","SES_LEVEL":"Unit","RCR":"N","QA":"Y","REGCODE":"HUR","UNIT_CODE":"MWA","POINT_X":150.35785,"POINT_Y":-32.13938},"geometry":{"x":16737759.298528574,"y":-3781620.356032487}},{"attributes":{"FID":231,"OBJECTID":244,"HQNAME":"Willoughby - Lane Cove","SUBURB":"Naremburn","STATE":"NSW","POSTCODE":"2065","SES_LEVEL":"Unit","RCR":"N","QA":"Y","REGCODE":"SNR","UNIT_CODE":"WLC","POINT_X":151.1955,"POINT_Y":-33.81554},"geometry":{"x":16831006.070054509,"y":-4004060.3663333762}},{"attributes":{"FID":232,"OBJECTID":114,"HQNAME":"Molong","SUBURB":"Molong","STATE":"NSW","POSTCODE":"2866","SES_LEVEL":"Unit","RCR":"N","QA":"Y","REGCODE":"CWR","UNIT_CODE":"MOL","POINT_X":148.86098,"POINT_Y":-33.09253},"geometry":{"x":16571128.49243384,"y":-3907592.2236143094}},{"attributes":{"FID":233,"OBJECTID":245,"HQNAME":"Macquarie","SUBURB":"Dubbo","STATE":"NSW","POSTCODE":"2830","SES_LEVEL":"Region","RCR":"N","QA":"Y","REGCODE":"MQR","UNIT_CODE":" ","POINT_X":148.61451,"POINT_Y":-32.25267},"geometry":{"x":16543691.57750169,"y":-3796523.380896172}},{"attributes":{"FID":234,"OBJECTID":115,"HQNAME":"Moree","SUBURB":"Moree","STATE":"NSW","POSTCODE":"2400","SES_LEVEL":"Unit","RCR":"Y","QA":"Y","REGCODE":"NWR","UNIT_CODE":"MRE","POINT_X":149.850937717,"POINT_Y":-29.495043859},"geometry":{"x":16681330.081191711,"y":-3438806.180577545}},{"attributes":{"FID":235,"OBJECTID":246,"HQNAME":"Tweed Coast","SUBURB":"Pottsville","STATE":"NSW","POSTCODE":"2489","SES_LEVEL":"Unit","RCR":" ","QA":" ","REGCODE":"RTR","UNIT_CODE":"TWC","POINT_X":153.567421773,"POINT_Y":-28.380052111},"geometry":{"x":17095047.19371314,"y":-3296974.7162013911}},{"attributes":{"FID":236,"OBJECTID":116,"HQNAME":"Mosman","SUBURB":"Mosman","STATE":"NSW","POSTCODE":"2088","SES_LEVEL":"Unit","RCR":"N","QA":"Y","REGCODE":"SNR","UNIT_CODE":"MOS","POINT_X":151.23872,"POINT_Y":-33.82509},"geometry":{"x":16835817.298445955,"y":-4005339.9974742918}},{"attributes":{"FID":237,"OBJECTID":247,"HQNAME":"Coniston","SUBURB":"Coniston","STATE":"NSW","POSTCODE":"2500","SES_LEVEL":"Unit","RCR":" ","QA":" ","REGCODE":"ISR","UNIT_CODE":"CST","POINT_X":150.872707232,"POINT_Y":-34.444274665},"geometry":{"x":16795072.943529896,"y":-4088614.4106751103}},{"attributes":{"FID":238,"OBJECTID":117,"HQNAME":"Mount Druitt","SUBURB":"Hebersham","STATE":"NSW","POSTCODE":"2770","SES_LEVEL":"Unit","RCR":"N","QA":"Y","REGCODE":"SWR","UNIT_CODE":"MDT","POINT_X":150.82691,"POINT_Y":-33.74928},"geometry":{"x":16789974.818949256,"y":-3995185.9345576074}},{"attributes":{"FID":239,"OBJECTID":248,"HQNAME":"St Georges Basin","SUBURB":"St Georges Basin","STATE":"NSW","POSTCODE":"2540","SES_LEVEL":"Unit","RCR":"N","QA":" ","REGCODE":"ISR","UNIT_CODE":"SGB","POINT_X":150.59609967,"POINT_Y":-35.08892717},"geometry":{"x":16764281.130619813,"y":-4175972.5676462632}},{"attributes":{"FID":240,"OBJECTID":249,"HQNAME":"Sutton","SUBURB":"Sutton","STATE":"NSW","POSTCODE":"2620","SES_LEVEL":"Unit","RCR":" ","QA":" ","REGCODE":"SHR","UNIT_CODE":"STN","POINT_X":149.255829937,"POINT_Y":-35.164563029},"geometry":{"x":16615082.986458641,"y":-4186267.151075684}},{"attributes":{"FID":241,"OBJECTID":118,"HQNAME":"Mullumbimby","SUBURB":"Mullumbimby","STATE":"NSW","POSTCODE":"2482","SES_LEVEL":"Unit","RCR":"N","QA":"Y","REGCODE":"RTR","UNIT_CODE":"MUL","POINT_X":153.49977,"POINT_Y":-28.55163},"geometry":{"x":17087516.23280051,"y":-3318701.4178775116}},{"attributes":{"FID":242,"OBJECTID":250,"HQNAME":"Windellama","SUBURB":"Windellama","STATE":"NSW","POSTCODE":"2580","SES_LEVEL":"Unit","RCR":" ","QA":" ","REGCODE":"SHR","UNIT_CODE":"WDL","POINT_X":149.874042458,"POINT_Y":-35.022619997},"geometry":{"x":16683902.089473013,"y":-4166955.5363442088}},{"attributes":{"FID":243,"OBJECTID":119,"HQNAME":"Mungindi","SUBURB":"Mungindi","STATE":"NSW","POSTCODE":"2406","SES_LEVEL":"Unit","RCR":"N","QA":"Y","REGCODE":"NWR","UNIT_CODE":"MUN","POINT_X":148.99743,"POINT_Y":-28.98054},"geometry":{"x":16586318.036743958,"y":-3373169.4464876638}},{"attributes":{"FID":244,"OBJECTID":120,"HQNAME":"Mathoura","SUBURB":"Mathoura","STATE":"NSW","POSTCODE":"2710","SES_LEVEL":"Unit","RCR":"N","QA":"Y","REGCODE":"MYR","UNIT_CODE":"MUR","POINT_X":144.89632,"POINT_Y":-35.81372},"geometry":{"x":16129784.5603381,"y":-4275019.7113468}},{"attributes":{"FID":245,"OBJECTID":251,"HQNAME":"Goodooga","SUBURB":"Goodooga","STATE":"NSW","POSTCODE":"2838","SES_LEVEL":"Unit","RCR":" ","QA":" ","REGCODE":"FWR","UNIT_CODE":"GDA","POINT_X":147.453793623,"POINT_Y":-29.115308295},"geometry":{"x":16414481.221333832,"y":-3390330.3995052893}},{"attributes":{"FID":246,"OBJECTID":121,"HQNAME":"Murrurundi","SUBURB":"Murrurundi","STATE":"NSW","POSTCODE":"2338","SES_LEVEL":"Unit","RCR":"N","QA":"Y","REGCODE":"HUR","UNIT_CODE":"MDI","POINT_X":150.83893,"POINT_Y":-31.76593},"geometry":{"x":16791312.879128627,"y":-3732624.3682453986}},{"attributes":{"FID":247,"OBJECTID":122,"HQNAME":"Murwillumbah","SUBURB":"Murwillumbah","STATE":"NSW","POSTCODE":"2484","SES_LEVEL":"Unit","RCR":"N","QA":"Y","REGCODE":"RTR","UNIT_CODE":"MBH","POINT_X":153.388030154,"POINT_Y":-28.333631198},"geometry":{"x":17075077.410034887,"y":-3291102.5412814193}},{"attributes":{"FID":248,"OBJECTID":123,"HQNAME":"Muswellbrook","SUBURB":"Muswellbrook","STATE":"NSW","POSTCODE":"2333","SES_LEVEL":"Unit","RCR":"Y","QA":"Y","REGCODE":"HUR","UNIT_CODE":"MBK","POINT_X":150.88876,"POINT_Y":-32.26215},"geometry":{"x":16796859.929378171,"y":-3797771.2941934136}},{"attributes":{"FID":249,"OBJECTID":124,"HQNAME":"Nabiac","SUBURB":"Nabiac","STATE":"NSW","POSTCODE":"2312","SES_LEVEL":"Unit","RCR":"Y","QA":"Y","REGCODE":"MNR","UNIT_CODE":"NAB","POINT_X":152.38482,"POINT_Y":-32.09549},"geometry":{"x":16963400.566729795,"y":-3775851.7110545286}},{"attributes":{"FID":250,"OBJECTID":125,"HQNAME":"Nambucca","SUBURB":"Macksville","STATE":"NSW","POSTCODE":"2449","SES_LEVEL":"Unit","RCR":"N","QA":"Y","REGCODE":"CNR","UNIT_CODE":"NAM","POINT_X":152.92857,"POINT_Y":-30.70873},"geometry":{"x":17023930.539770171,"y":-3594979.6822773013}},{"attributes":{"FID":251,"OBJECTID":126,"HQNAME":"Narrabri","SUBURB":"Narrabri","STATE":"NSW","POSTCODE":"2390","SES_LEVEL":"Unit","RCR":"N","QA":"Y","REGCODE":"NMR","UNIT_CODE":"NAA","POINT_X":149.79133,"POINT_Y":-30.3249},"geometry":{"x":16674694.580529468,"y":-3545381.4477063739}}]}
